city_id,city_name,state_code,country_code,country_full,city_lat,city_lon,
14256,Azadshahr,09,IR,Iran,34.7905,48.5701,
18918,Protaras,01,CY,Cyprus,35.0125,34.0583,
23814,Kahriz,13,IR,Iran,34.3838,47.0553,
24851,Nurabad,23,IR,Iran,34.0734,47.9725,
32723,Istgah-e Rah Ahan-e Garmsar,25,IR,Iran,35.2346,52.3094,
32767,Qarchak,26,IR,Iran,35.4287,51.5754,
32909,Shahre Jadide Andisheh,26,IR,Iran,35.6803,51.0193,
41210,Khorramdarreh,36,IR,Iran,36.209,49.1915,
50672,Wanlaweyn,14,SO,Somalia,2.6185,44.8938,
52867,Qoryooley,14,SO,Somalia,1.78784,44.53,
53157,Qandala,03,SO,Somalia,11.472,49.8728,
53654,Mogadishu,02,SO,Somalia,2.03711,45.3438,
54225,Marka,14,SO,Somalia,1.71594,44.7717,
54715,Luuq,06,SO,Somalia,3.80315,42.5442,
55671,Kismayo,09,SO,Somalia,-0.35817,42.5454,
56166,Jilib,08,SO,Somalia,0.48829,42.7854,
56335,Jawhar,13,SO,Somalia,2.78087,45.5005,
56399,Jamaame,09,SO,Somalia,0.06968,42.745,
57289,Hargeysa,20,SO,Somalia,9.56,44.065,
58933,Garoowe,18,SO,Somalia,8.40207,48.4828,
59611,Gaalkacyo,10,SO,Somalia,6.76972,47.4308,
60019,Eyl,18,SO,Somalia,7.9803,49.8164,
62691,Ceerigaabo,12,SO,Somalia,10.6162,47.368,
62788,Ceeldheer,05,SO,Somalia,3.84878,47.1806,
63571,Buurhakaba,04,SO,Somalia,2.80257,44.078,
63689,Buulobarde,07,SO,Somalia,3.85375,45.5674,
63795,Burao,19,SO,Somalia,9.52213,45.5336,
64013,Bosaso,03,SO,Somalia,11.2842,49.1816,
64435,Berbera,20,SO,Somalia,10.4396,45.0143,
64460,Beledweyne,07,SO,Somalia,4.73583,45.2036,
64536,Baidoa,04,SO,Somalia,3.11383,43.6498,
65170,Baardheere,06,SO,Somalia,2.34464,42.2764,
65785,Afgooye,14,SO,Somalia,2.1381,45.1212,
66093,Yasuj,05,IR,Iran,30.6682,51.588,
69426,Zinjibar,01,YE,Aden Municipality,13.1287,45.3807,
69500,Zabid,08,YE,Aden Municipality,14.1951,43.3152,
69559,Yarim,23,YE,Aden Municipality,14.298,44.3779,
70979,Sayyan,16,YE,Aden Municipality,15.1718,44.3244,
71137,Sanaa,16,YE,Aden Municipality,15.3547,44.2067,
71273,Sahar,16,YE,Aden Municipality,15.3159,44.3086,
71334,Sa'dah,15,YE,Aden Municipality,16.9402,43.7639,
72968,Ma'rib,14,YE,Aden Municipality,15.4625,45.3258,
73560,Lahij,24,YE,Aden Municipality,13.0567,44.8819,
74477,Ibb,23,YE,Aden Municipality,13.9667,44.1833,
75337,Hajjah,22,YE,Aden Municipality,15.6943,43.6058,
76154,Dhi as Sufal,23,YE,Aden Municipality,13.8345,44.1147,
76184,Dhamar,11,YE,Aden Municipality,14.5427,44.4051,
76991,Bayt al Faqih,08,YE,Aden Municipality,14.5163,43.3245,
77408,Bajil,08,YE,Aden Municipality,15.059,43.2873,
77726,Ataq,05,YE,Aden Municipality,14.5377,46.8319,
78754,Al Mukalla,04,YE,Aden Municipality,14.5425,49.1242,
79415,Al Hudaydah,08,YE,Aden Municipality,14.7978,42.9545,
79455,Al Hazm,21,YE,Aden Municipality,16.1641,44.7769,
81302,Tobruk,79,LY,Libya,32.0836,23.9764,
81604,Suluq,69,LY,Libya,31.6682,20.2521,
87205,Darnah,70,LY,Libya,32.767,22.6367,
88319,Benghazi,69,LY,Libya,32.1149,20.0686,
88380,Az Zuwaytinah,83,LY,Libya,30.9522,20.1202,
88562,At Taj,65,LY,Libya,24.2049,23.2857,
88834,Tukrah,66,LY,Libya,32.5341,20.5791,
88835,Al Qubbah,70,LY,Libya,32.7616,22.2424,
88903,Al Marj,66,LY,Libya,32.488,20.8317,
88962,Al Jawf,65,LY,Libya,24.1989,23.2909,
89087,Al Abyar,66,LY,Libya,32.19,20.5965,
89113,Ajdabiya,83,LY,Libya,30.7554,20.2262,
89570,Zaxo,08,IQ,Iraq,37.1487,42.6859,
89824,Umm Qasr,02,IQ,Iraq,30.0362,47.9195,
90026,Tozkhurmato,18,IQ,Iraq,34.8881,44.6326,
90150,Tikrit,18,IQ,Iraq,34.6158,43.6786,
90353,Tallkayf,15,IQ,Iraq,36.4911,43.1203,
90708,Sinah,08,IQ,Iraq,36.8075,43.0383,
91812,Nahiyat Saddat al Hindiyah,06,IQ,Iraq,32.7156,44.2786,
92002,Ruwandiz,11,IQ,Iraq,36.6121,44.5237,
92430,Al-Hamdaniya,15,IQ,Iraq,36.2709,43.3776,
93709,Mandali,10,IQ,Iraq,33.7481,45.555,
94220,Koysinceq,11,IQ,Iraq,36.0829,44.6287,
94298,Kifri,10,IQ,Iraq,34.6896,44.9606,
94787,Kirkuk,13,IQ,Iraq,35.4681,44.3922,
94824,Karbala,12,IQ,Iraq,32.616,44.0249,
95446,Erbil,11,IQ,Iraq,36.1926,44.0106,
95788,Hit,01,IQ,Iraq,33.6366,42.8277,
96205,Halabjah,05,IQ,Iraq,35.1778,45.9861,
96309,Hadithah,01,IQ,Iraq,34.1366,42.3773,
96994,Dihok,08,IQ,Iraq,36.8671,42.9884,
97417,Jamjamal,05,IQ,Iraq,35.5336,44.8343,
97783,Bayji,18,IQ,Iraq,34.9291,43.4888,
97990,Baqubah,10,IQ,Iraq,33.754,44.6052,
98012,Baynjiwayn,05,IQ,Iraq,35.6233,45.9471,
98112,Balad,18,IQ,Iraq,34.0149,44.1457,
98182,Baghdad,07,IQ,Iraq,33.3406,44.4009,
98245,Az Zubayr,02,IQ,Iraq,30.3921,47.7018,
98459,As Suwayrah,16,IQ,Iraq,32.9256,44.7758,
98463,As Sulaymaniyah,05,IQ,Iraq,35.565,45.4329,
98530,As Samawah,03,IQ,Iraq,31.332,45.2944,
98589,Nahiyat ash Shinafiyah,04,IQ,Iraq,31.5838,44.6468,
98622,Ash Shatrah,09,IQ,Iraq,31.4091,46.1727,
98629,Ash Shamiyah,04,IQ,Iraq,31.9626,44.6007,
98677,Ar Rutbah,01,IQ,Iraq,33.0372,40.2859,
98685,Ar Rumaythah,03,IQ,Iraq,31.5285,45.2038,
98717,Ramadi,01,IQ,Iraq,33.4206,43.3078,
98854,An Nasiriyah,09,IQ,Iraq,31.058,46.2573,
98860,Najaf,17,IQ,Iraq,32.0259,44.3462,
99010,Imam Qasim,06,IQ,Iraq,32.298,44.6828,
99039,Al Musayyib,06,IQ,Iraq,32.7787,44.2901,
99060,Al Mishkhab,17,IQ,Iraq,31.8044,44.4893,
99062,Al Miqdadiyah,10,IQ,Iraq,33.9786,44.9369,
99071,Al Mawsil al Jadidah,15,IQ,Iraq,36.3327,43.1055,
99072,Mosul,15,IQ,Iraq,36.335,43.1189,
99131,Al Kut,16,IQ,Iraq,32.5128,45.8182,
99135,Kufa,17,IQ,Iraq,32.0511,44.4402,
99169,Khalis,10,IQ,Iraq,33.8081,44.5334,
99344,Al Hindiyah,12,IQ,Iraq,32.5467,44.2276,
99347,Al Hillah,06,IQ,Iraq,32.4637,44.4196,
99350,Al Hayy,16,IQ,Iraq,32.1742,46.0434,
99369,Al Harithah,02,IQ,Iraq,30.5848,47.7611,
99434,Nahiyat Ghammas,04,IQ,Iraq,31.7431,44.6196,
99439,Nahiyat al Fuhud,09,IQ,Iraq,30.9697,46.7228,
99446,Al Faw,02,IQ,Iraq,29.9742,48.4731,
99454,Al Fallujah,01,IQ,Iraq,33.3491,43.786,
99532,Basrah,02,IQ,Iraq,30.5085,47.7804,
99759,Ad Dujayl,18,IQ,Iraq,33.8467,44.2344,
99762,Ad Diwaniyah,04,IQ,Iraq,31.9929,44.9255,
100077,Abu Ghurayb,07,IQ,Iraq,33.3056,44.1848,
100425,Yanbu,05,SA,Saudi Arabia,24.0891,38.0637,
100926,Umm Lajj,19,SA,Saudi Arabia,25.0213,37.2685,
101312,Turaif,15,SA,Saudi Arabia,31.6725,38.6637,
101322,Turabah,14,SA,Saudi Arabia,21.2141,41.6331,
101554,Tarut,06,SA,Saudi Arabia,26.5733,50.0369,
101628,Tabuk,19,SA,Saudi Arabia,28.3998,36.5715,
101631,Tubarjal,20,SA,Saudi Arabia,30.4999,38.216,
101760,Sultanah,05,SA,Saudi Arabia,24.4926,39.5857,
102318,Sayhat,06,SA,Saudi Arabia,26.4852,50.0405,
102451,Samitah,17,SA,Saudi Arabia,16.596,42.9444,
102527,Sakakah,20,SA,Saudi Arabia,29.9697,40.2064,
102585,Safwa,06,SA,Saudi Arabia,26.6499,49.9522,
102651,Sabya,17,SA,Saudi Arabia,17.1495,42.6254,
102985,Rahimah,06,SA,Saudi Arabia,26.7079,50.0619,
103035,Rabigh,14,SA,Saudi Arabia,22.7986,39.0349,
103630,Najran,16,SA,Saudi Arabia,17.4933,44.1277,
104515,Mecca,14,SA,Saudi Arabia,21.4266,39.8256,
105072,Khamis Mushait,11,SA,Saudi Arabia,18.3,42.7333,
105299,Jizan,17,SA,Saudi Arabia,16.8892,42.5511,
105343,Jeddah,14,SA,Saudi Arabia,21.5424,39.198,
106281,Ha'il,13,SA,Saudi Arabia,27.5219,41.6907,
106909,Duba,19,SA,Saudi Arabia,27.3513,35.6901,
107304,Buraydah,08,SA,Saudi Arabia,26.326,43.975,
107312,Abqaiq,06,SA,Saudi Arabia,25.9371,49.6776,
107744,Badr Hunayn,05,SA,Saudi Arabia,23.7829,38.7905,
107781,Az Zulfi,10,SA,Saudi Arabia,26.2994,44.8154,
107797,Dhahran,06,SA,Saudi Arabia,26.2886,50.114,
107959,At Taraf,06,SA,Saudi Arabia,25.3628,49.725,
108048,As Sulayyil,10,SA,Saudi Arabia,20.4607,45.5779,
108410,Riyadh,10,SA,Saudi Arabia,24.6877,46.7219,
108435,Ar Rass,08,SA,Saudi Arabia,25.8694,43.4973,
108512,Arar,15,SA,Saudi Arabia,30.9753,41.0381,
108617,An Nimas,11,SA,Saudi Arabia,19.1455,42.1201,
108648,Qurayyat,20,SA,Saudi Arabia,31.3318,37.3428,
108773,Al Wajh,19,SA,Saudi Arabia,26.2455,36.4525,
108841,Al-`Ula,05,SA,Saudi Arabia,26.6085,37.9232,
108918,Qaisumah,06,SA,Saudi Arabia,28.3112,46.1273,
108927,Al Qatif,06,SA,Saudi Arabia,26.5208,50.0245,
109059,Al Munayzilah,06,SA,Saudi Arabia,25.3833,49.6667,
109101,Al Mubarraz,06,SA,Saudi Arabia,25.41,49.5808,
109131,Al Mithnab,08,SA,Saudi Arabia,25.8601,44.2223,
109223,Medina,05,SA,Saudi Arabia,24.4686,39.6142,
109323,Khobar,06,SA,Saudi Arabia,26.2794,50.2083,
109380,Al Khafji,06,SA,Saudi Arabia,28.4391,48.4913,
109417,Al Jumum,14,SA,Saudi Arabia,21.6169,39.6981,
109435,Al Jubayl,06,SA,Saudi Arabia,27.0112,49.6582,
109571,Al Hufuf,06,SA,Saudi Arabia,25.3646,49.5653,
109878,Al Bukayriyah,08,SA,Saudi Arabia,26.1442,43.6593,
109915,Al Battaliyah,06,SA,Saudi Arabia,25.4333,49.6333,
109953,Al Bahah,02,SA,Saudi Arabia,20.0129,41.4677,
110314,Ad Dilam,10,SA,Saudi Arabia,23.991,47.1618,
110325,Ad Dawadimi,10,SA,Saudi Arabia,24.5077,44.3924,
110336,Dammam,06,SA,Saudi Arabia,26.4344,50.1033,
110690,Abha,11,SA,Saudi Arabia,18.2164,42.5053,
110831,Zarand,37,IR,Iran,37.0864,55.1722,
111421,Zanjan,29,IR,Iran,30.8127,56.564,
111453,Yazd,36,IR,Iran,36.6764,48.4963,
111822,Varamin,40,IR,Iran,31.8972,54.3675,
112214,Torbat-e Heydariyeh,26,IR,Iran,35.3242,51.6457,
112646,Tonekabon,42,IR,Iran,35.274,59.2195,
112656,Tehran,35,IR,Iran,36.8163,50.8738,
112931,Hashtpar,26,IR,Iran,35.6944,51.4215,
113343,Takestan,08,IR,Iran,37.7966,48.9052,
113491,Takab,38,IR,Iran,36.0696,49.6959,
113508,Taft,01,IR,Iran,36.4009,47.1133,
113632,Tabriz,40,IR,Iran,31.7438,54.2028,
113646,Tabas,33,IR,Iran,38.08,46.2919,
113659,Sonqor,40,IR,Iran,33.5959,56.9244,
114049,Sirjan,13,IR,Iran,34.7837,47.6004,
114259,Shushtar,29,IR,Iran,29.4514,55.6809,
114584,Shush,15,IR,Iran,32.0497,48.8484,
114593,Shirvan,15,IR,Iran,32.1942,48.2436,
114930,Shiraz,43,IR,Iran,37.3967,57.9295,
115019,Shahr-e Kord,07,IR,Iran,29.6103,52.5311,
115770,Shahr-e Babak,03,IR,Iran,32.3256,50.8644,
115781,Shadegan,29,IR,Iran,30.1165,55.1186,
116102,Semnan,15,IR,Iran,30.6492,48.665,
116402,Semirom,25,IR,Iran,35.5769,53.3921,
116406,Saveh,28,IR,Iran,31.4167,51.5667,
116667,Sari,34,IR,Iran,35.0213,50.3566,
116996,Saqqez,35,IR,Iran,36.5633,53.0601,
117392,Sanandaj,16,IR,Iran,36.2499,46.2735,
117574,Salmas,16,IR,Iran,35.3149,46.9988,
117656,Shahin Dezh,01,IR,Iran,38.1973,44.7653,
117793,Sabzevar,01,IR,Iran,36.6793,46.5669,
118063,Rudsar,42,IR,Iran,36.2126,57.6819,
118191,Robat Karim,08,IR,Iran,37.1376,50.288,
118367,Ravar,26,IR,Iran,35.4846,51.0829,
118704,Rasht,29,IR,Iran,31.2656,56.8055,
118743,Ramshir,08,IR,Iran,37.2761,49.5886,
118805,Ramhormoz,15,IR,Iran,30.8932,49.4079,
118826,Rafsanjan,15,IR,Iran,31.28,49.6035,
118994,Quchan,29,IR,Iran,30.4067,55.9939,
119115,Qorveh,42,IR,Iran,37.106,58.5095,
119161,Qom,16,IR,Iran,35.1664,47.8045,
119208,Qeshm,39,IR,Iran,34.6401,50.8764,
119374,Qazvin,11,IR,Iran,26.9492,56.2691,
119505,Farrokh Shahr,38,IR,Iran,36.2688,50.0041,
120678,Pishva,03,IR,Iran,32.2717,50.9801,
120972,Piranshahr,26,IR,Iran,35.308,51.7267,
121110,Paveh,01,IR,Iran,36.701,45.1413,
121240,Parsabad,13,IR,Iran,35.0434,46.3565,
121380,Oshnaviyeh,32,IR,Iran,39.6482,47.9174,
121795,Orumiyeh,01,IR,Iran,37.0397,45.0983,
121801,Omidiyeh,01,IR,Iran,37.5527,45.076,
121861,Nowshahr,15,IR,Iran,30.7597,49.705,
121925,Nishabur,07,IR,Iran,30.114,51.5217,
121959,Neyriz,35,IR,Iran,36.649,51.496,
122285,Neka,42,IR,Iran,36.2133,58.7957,
122289,Naqadeh,07,IR,Iran,29.1988,54.3278,
122397,Nahavand,35,IR,Iran,36.6508,53.299,
122698,Minab,01,IR,Iran,36.9553,45.388,
122915,Miandoab,09,IR,Iran,34.1909,48.3745,
123941,Meybod,11,IR,Iran,27.131,57.0872,
124085,Mahriz,01,IR,Iran,36.9667,46.1096,
124193,Masjed Soleyman,40,IR,Iran,32.2501,54.0166,
124274,Bardsir,40,IR,Iran,31.5843,54.4428,
124620,Mashhad,15,IR,Iran,31.9364,49.3039,
124647,Marivan,29,IR,Iran,29.9227,56.5743,
124665,Marand,42,IR,Iran,36.3156,59.568,
124778,Malayer,16,IR,Iran,35.5183,46.183,
124862,Malard,33,IR,Iran,38.4329,45.7749,
125185,Mahabad,09,IR,Iran,34.3016,48.8217,
125188,Langarud,26,IR,Iran,35.6659,50.9767,
125446,Kuhdasht,01,IR,Iran,36.7631,45.7222,
125897,Kish,08,IR,Iran,37.197,50.1535,
126409,Khvoy,23,IR,Iran,33.5334,47.61,
126914,Khvansar,11,IR,Iran,26.5578,54.0194,
126972,Khorramshahr,01,IR,Iran,38.5503,44.9521,
127033,Khorramabad,28,IR,Iran,33.2205,50.315,
127319,Khomeyn,15,IR,Iran,30.4408,48.1843,
127349,Khalkhal,23,IR,Iran,33.4878,48.3558,
127403,Kermanshah,34,IR,Iran,33.6423,50.0789,
128008,Kerman,32,IR,Iran,37.6189,48.5258,
128226,Kazerun,13,IR,Iran,34.3142,47.065,
128234,Kashmar,29,IR,Iran,30.2832,57.0788,
128321,Kashan,07,IR,Iran,29.6195,51.6541,
128447,Karaj,42,IR,Iran,35.2383,58.4656,
128477,Kangavar,28,IR,Iran,33.9831,51.4364,
128747,Kamyaran,44,IR,Iran,35.8327,50.9916,
128831,Kalaleh,13,IR,Iran,34.5043,47.9653,
128905,Juybar,16,IR,Iran,34.7956,46.9355,
129512,Javanrud,37,IR,Iran,37.379,55.493,
129933,Ilam,35,IR,Iran,36.6412,52.9124,
130245,Harsin,13,IR,Iran,34.7961,46.5172,
130802,Hamadan,10,IR,Iran,33.6374,46.4227,
131962,Gorgan,13,IR,Iran,34.2721,47.5861,
132144,Gonbad-e Kavus,09,IR,Iran,34.7992,48.5146,
132892,Gonabad,37,IR,Iran,36.8427,54.4439,
132938,Golpayegan,37,IR,Iran,37.25,55.1672,
132961,Gerash,42,IR,Iran,34.3529,58.6837,
133037,Bandar-e Ganaveh,28,IR,Iran,33.4537,50.2884,
133595,Fuman,07,IR,Iran,27.6697,54.1359,
134217,Firuzabad,22,IR,Iran,29.5791,50.517,
134441,Fereydunkenar,08,IR,Iran,37.224,49.3125,
134518,Fasa,07,IR,Iran,28.8438,52.5707,
134602,Farsan,35,IR,Iran,36.6864,52.5225,
134721,Esfarayen,07,IR,Iran,28.9383,53.6482,
134762,Shahrud,03,IR,Iran,32.2569,50.561,
135298,Dogonbadan,43,IR,Iran,37.0765,57.5101,
135423,Delijan,25,IR,Iran,36.4182,54.9763,
136014,Dehloran,05,IR,Iran,30.3586,50.7981,
136399,Dehdasht,34,IR,Iran,33.9905,50.6838,
136702,Susangerd,10,IR,Iran,32.6941,47.2679,
136987,Darreh Shahr,05,IR,Iran,30.7949,50.5646,
137268,Darab,15,IR,Iran,31.5635,48.1896,
137436,Damghan,10,IR,Iran,33.1445,47.3799,
137956,Damavand,07,IR,Iran,28.7519,54.5444,
138025,Chenaran,25,IR,Iran,36.1679,54.3429,
138042,Chalus,26,IR,Iran,35.7184,52.0696,
138742,Bandar-e Bushehr,42,IR,Iran,36.6455,59.1212,
139223,Bukan,35,IR,Iran,36.655,51.4204,
139817,Borujerd,22,IR,Iran,28.9684,50.8385,
139889,Borujen,01,IR,Iran,36.521,46.2089,
140044,Borazjan,23,IR,Iran,33.8973,48.7516,
140046,Bojnurd,03,IR,Iran,31.9652,51.2873,
140097,Birjand,22,IR,Iran,29.2699,51.2188,
140380,Bijar,43,IR,Iran,37.4747,57.329,
140463,Bonab,41,IR,Iran,32.8663,59.2211,
140521,Behshahr,16,IR,Iran,35.8668,47.6051,
140889,Behbahan,33,IR,Iran,37.3404,46.0561,
140918,Baneh,35,IR,Iran,36.6923,53.5526,
140951,Bandar-e Lengeh,15,IR,Iran,30.5959,50.2417,
141584,Bandar-e Anzali,16,IR,Iran,35.9975,45.8853,
141665,Bandar Abbas,11,IR,Iran,26.5579,54.8807,
141679,Bam,08,IR,Iran,37.4732,49.4579,
141681,Bahar,11,IR,Iran,27.1865,56.2808,
141736,Bafq,29,IR,Iran,29.106,58.357,
142000,Babolsar,09,IR,Iran,34.9072,48.4414,
142255,Babol,40,IR,Iran,31.6035,55.4025,
142358,Azna,35,IR,Iran,36.7025,52.6576,
142363,Hashtrud,35,IR,Iran,36.5513,52.679,
142496,Astara,23,IR,Iran,33.6095,48.9307,
142554,Astaneh-ye Ashrafiyeh,33,IR,Iran,37.4779,47.0508,
142676,Asadabad,08,IR,Iran,38.4291,48.872,
142679,Ardestan,08,IR,Iran,37.2632,49.9432,
142872,Ardakan,09,IR,Iran,34.7824,48.1201,
143052,Ardabil,28,IR,Iran,33.3761,52.3694,
143073,Arak,40,IR,Iran,32.31,54.0175,
143083,Amol,32,IR,Iran,38.2498,48.2933,
143127,Alvand,34,IR,Iran,34.0917,49.6892,
143534,Shahriar,35,IR,Iran,36.4696,52.3507,
143748,Aligudarz,36,IR,Iran,36.3187,49.1678,
143860,Aleshtar,26,IR,Iran,35.6588,51.0578,
143921,Akbarabad,23,IR,Iran,33.4006,49.6949,
144269,Ahvaz,23,IR,Iran,33.8642,48.2626,
144410,Ahar,07,IR,Iran,29.2464,52.7793,
144448,Aghajari,15,IR,Iran,31.319,48.6842,
144616,Abyek,33,IR,Iran,38.4774,47.0699,
144696,Abhar,15,IR,Iran,30.7006,49.8315,
144794,Abdanan,34,IR,Iran,36.0667,50.55,
145034,Abadeh,36,IR,Iran,36.1468,49.218,
145233,Abadan,10,IR,Iran,32.9926,47.4198,
145449,Saurimo,07,IR,Iran,31.1608,52.6506,
145459,Lucapa,15,IR,Iran,30.3392,48.3043,
145531,Paphos,18,AO,Angola,-9.66078,20.3916,
145724,Nicosia,17,AO,Angola,-8.41915,20.7447,
146214,Limassol,06,CY,Cyprus,34.7768,32.4245,
146268,Larnaca,04,CY,Cyprus,35.1753,33.3642,
146384,Kyrenia,05,CY,Cyprus,34.6841,33.0379,
146400,Famagusta,03,CY,Cyprus,34.9229,33.6233,
146412,Xankandi,02,CY,Cyprus,35.3363,33.3173,
146617,Shushi,01,CY,Cyprus,35.1205,33.9389,
146970,Salyan,61,AZ,Azerbaijan,39.8177,46.7528,
147105,Neftcala,55,AZ,Azerbaijan,39.7601,46.7499,
147271,Nakhchivan,49,AZ,Azerbaijan,39.5962,48.9848,
147425,Lankaran,36,AZ,Azerbaijan,39.3768,49.247,
147429,Imishli,35,AZ,Azerbaijan,39.2089,45.4122,
147622,Fizuli,29,AZ,Azerbaijan,38.7543,48.8506,
147982,Dzhalilabad,24,AZ,Azerbaijan,39.8709,48.06,
148106,Pushkino,18,AZ,Azerbaijan,39.6009,47.1453,
148290,Beylagan,15,AZ,Azerbaijan,39.2096,48.4919,
148340,Sirvan,13,AZ,Azerbaijan,39.4583,48.545,
148354,Agdam,12,AZ,Azerbaijan,39.7756,47.6186,
148445,Zanzibar,08,AZ,Azerbaijan,38.456,48.875,
148565,Wete,07,AZ,Azerbaijan,39.9378,48.929,
148619,Vwawa,03,AZ,Azerbaijan,39.991,46.9274,
148730,Vikindu,25,TZ,Tanzania,-6.16394,39.1979,
148842,Uyovu,13,TZ,Tanzania,-5.05589,39.7294,
148942,Uvinza,09,TZ,Tanzania,-9.11667,32.9333,
148987,Ushirombo,02,TZ,Tanzania,-7.00667,39.2985,
149027,Usevia,28,TZ,Tanzania,-3.28333,31.5258,
149050,Usagara,05,TZ,Tanzania,-5.10361,30.3911,
149129,Usa River,28,TZ,Tanzania,-3.49194,31.9639,
149132,Urambo,29,TZ,Tanzania,-7.1,31.2333,
149151,Tunduma,12,TZ,Tanzania,-2.68333,33,
149155,Tumbi,26,TZ,Tanzania,-3.36667,36.85,
149172,Tukuyu,17,TZ,Tanzania,-5.06667,32.05,
149402,Tinde,09,TZ,Tanzania,-9.3,32.7667,
149418,Tarime,17,TZ,Tanzania,-5.06667,32.7333,
149437,Tanga,09,TZ,Tanzania,-9.25,33.65,
149512,Tabora,15,TZ,Tanzania,-3.88333,33.2,
149581,Sumbawanga,08,TZ,Tanzania,-1.35,34.3667,
149606,Songwa,18,TZ,Tanzania,-5.06893,39.0988,
149658,Somanda,17,TZ,Tanzania,-5.01622,32.8266,
149703,Sokoni,24,TZ,Tanzania,-7.96667,31.6167,
149775,Sirari,15,TZ,Tanzania,-3.51667,33.5167,
149792,Singida,31,TZ,Tanzania,-3.36667,33.95,
149812,Sikonge,21,TZ,Tanzania,-6.43333,39.55,
149854,Shinyanga,08,TZ,Tanzania,-1.25367,34.476,
149879,Shelui,16,TZ,Tanzania,-4.81629,34.7436,
149929,Sepuka,17,TZ,Tanzania,-5.63333,32.7667,
150006,Same,15,TZ,Tanzania,-3.66393,33.4212,
150037,Rulenge,16,TZ,Tanzania,-4.36667,34.2,
150099,Rujewa,16,TZ,Tanzania,-4.75,34.5333,
150276,Puma,06,TZ,Tanzania,-4.06667,37.7333,
150436,Old Shinyanga,19,TZ,Tanzania,-2.7175,30.6325,
150453,Nzega,09,TZ,Tanzania,-8.7,34.3833,
150634,Nyamuswa,16,TZ,Tanzania,-5,34.7333,
150885,Nyalikungu,15,TZ,Tanzania,-3.55,33.4,
150930,Nyakabindi,17,TZ,Tanzania,-4.21667,33.1833,
151108,Nsunga,08,TZ,Tanzania,-1.9,34.0167,
151211,Nshamba,31,TZ,Tanzania,-3.18333,33.7833,
151266,Njombe,31,TZ,Tanzania,-2.63333,33.9833,
151363,Nguruka,19,TZ,Tanzania,-1.14389,31.3947,
151373,Ngudu,19,TZ,Tanzania,-1.79833,31.5511,
151479,Ngerengere,30,TZ,Tanzania,-9.33333,34.7667,
151567,Ngara,05,TZ,Tanzania,-5.10917,31.0419,
151599,Nangwa,12,TZ,Tanzania,-2.96667,33.3333,
151678,Namanyere,10,TZ,Tanzania,-6.75,38.1167,
151711,Mwanza,19,TZ,Tanzania,-2.51222,30.6558,
151929,Mwadui,27,TZ,Tanzania,-4.46667,35.45,
151986,Mvomero,24,TZ,Tanzania,-7.51667,31.05,
152224,Musoma,12,TZ,Tanzania,-2.51667,32.9,
152376,Muriti,15,TZ,Tanzania,-3.55,33.6,
152403,Mungaa,02,TZ,Tanzania,-6.25,38.6667,
152451,Muheza,08,TZ,Tanzania,-1.5,33.8,
152497,Mugumu,08,TZ,Tanzania,-1.98333,32.9167,
152546,Mtwango,16,TZ,Tanzania,-4.96667,34.8833,
152632,Mto wa Mbu,18,TZ,Tanzania,-5.16667,38.7833,
152663,Mtinko,08,TZ,Tanzania,-1.85,34.7,
152718,Msowero,30,TZ,Tanzania,-9.01667,34.8,
152743,Mpwapwa,26,TZ,Tanzania,-3.35,35.85,
152781,Mpanda,16,TZ,Tanzania,-4.55,34.85,
152933,Moshi,10,TZ,Tanzania,-6.53333,37.2,
153094,Morogoro,03,TZ,Tanzania,-6.35,36.4833,
153176,Mlowo,29,TZ,Tanzania,-6.34379,31.0695,
153209,Mlimba,06,TZ,Tanzania,-3.35,37.3333,
153220,Mlangali,10,TZ,Tanzania,-6.82102,37.6612,
153352,Mlandizi,09,TZ,Tanzania,-9,32.9833,
153384,Mlalo,10,TZ,Tanzania,-8.8,35.8167,
153408,Mkuranga,30,TZ,Tanzania,-9.78333,34.5167,
153412,Mwandiga,02,TZ,Tanzania,-6.7,38.7333,
153423,Misungwi,18,TZ,Tanzania,-4.93333,38.9333,
153482,Mikumi,02,TZ,Tanzania,-7.11799,39.2078,
153709,Mhango,05,TZ,Tanzania,-4.83,29.6581,
153759,Mgandu,12,TZ,Tanzania,-2.85,33.0833,
153871,Mbuguni,10,TZ,Tanzania,-7.40409,36.9831,
154002,Mbeya,15,TZ,Tanzania,-3.28333,32.85,
154097,Mazinde,16,TZ,Tanzania,-5.95,34.1333,
154321,Matui,26,TZ,Tanzania,-3.56667,36.95,
154380,Matai,09,TZ,Tanzania,-8.9,33.45,
154470,Maswa,18,TZ,Tanzania,-4.8,38.2167,
154566,Masumbwe,18,TZ,Tanzania,-4.8,38.25,
154638,Maramba,24,TZ,Tanzania,-8.3,31.5167,
154648,Malinyi,31,TZ,Tanzania,-2.68333,33.9833,
154654,Malampaka,28,TZ,Tanzania,-3.63333,32.1833,
154780,Makuyuni,18,TZ,Tanzania,-5.05,38.6167,
155016,Makumbako,10,TZ,Tanzania,-8.93333,36.1333,
155056,Mahanje,31,TZ,Tanzania,-3.13333,33.5333,
155076,Kihangara,18,TZ,Tanzania,-4.73333,38.1,
155101,Magugu,30,TZ,Tanzania,-8.85,34.8333,
155285,Magomeni,14,TZ,Tanzania,-9.93333,35.3333,
155307,Magole,12,TZ,Tanzania,-2.58333,33.35,
155310,Mafinga,27,TZ,Tanzania,-4.01667,35.7667,
155321,Mabama,23,TZ,Tanzania,-6.8,39.25,
155334,Lushoto,10,TZ,Tanzania,-6.37697,37.3737,
155405,Lugoba,04,TZ,Tanzania,-7.25,35.0667,
155515,Liwale,17,TZ,Tanzania,-5.13333,32.5333,
155569,Lembeni,18,TZ,Tanzania,-4.78333,38.2833,
155743,Lalago,02,TZ,Tanzania,-6.45,38.3333,
155921,Laela,07,TZ,Tanzania,-9.76667,37.9333,
156025,Kyela,06,TZ,Tanzania,-3.78333,37.6167,
156080,Kondoa,31,TZ,Tanzania,-3.45,33.95,
156098,Kiwira,24,TZ,Tanzania,-8.56667,32.05,
156111,Kishapu,09,TZ,Tanzania,-9.58333,33.85,
156510,Kisesa,03,TZ,Tanzania,-4.9,35.7833,
156627,Kirando,09,TZ,Tanzania,-9.17307,33.5415,
156963,Kiomboi,15,TZ,Tanzania,-3.61667,33.8667,
156974,Kingori,31,TZ,Tanzania,-3.08333,34.15,
157107,Kilosa,24,TZ,Tanzania,-7.41667,30.6,
157198,Kigoma,16,TZ,Tanzania,-4.26667,34.3667,
157268,Kidodi,26,TZ,Tanzania,-3.28333,36.9833,
157403,Kidatu,10,TZ,Tanzania,-6.83333,36.9833,
157738,Kibondo,05,TZ,Tanzania,-4.87694,29.6267,
157826,Kibiti,10,TZ,Tanzania,-7.60361,37.0044,
157863,Kibara,10,TZ,Tanzania,-7.69916,36.9572,
157960,Kibakwe,05,TZ,Tanzania,-3.58639,30.7203,
157977,Kibaha,02,TZ,Tanzania,-7.72178,38.9375,
158016,Katumba,08,TZ,Tanzania,-2.15,33.45,
158024,Katoro,03,TZ,Tanzania,-6.71667,36.3667,
158027,Katerero,02,TZ,Tanzania,-6.76667,38.9167,
158151,Kasulu,09,TZ,Tanzania,-9.23333,33.6167,
158160,Kasamwa,28,TZ,Tanzania,-3.02028,31.8958,
158179,Kiratu,19,TZ,Tanzania,-1.4,31.7333,
158214,Kamachumu,05,TZ,Tanzania,-4.57667,30.1025,
158289,Kakonko,28,TZ,Tanzania,-2.85,32.4333,
158324,Kahama,26,TZ,Tanzania,-3.33333,35.6667,
158492,Kabanga,19,TZ,Tanzania,-1.61861,31.62,
158563,Izazi,05,TZ,Tanzania,-3.28278,30.9642,
158597,Itigi,15,TZ,Tanzania,-3.83333,32.6,
158684,Isaka,19,TZ,Tanzania,-2.63861,30.4678,
158825,Iringa,04,TZ,Tanzania,-7.2,35.7333,
158904,Ipinda,16,TZ,Tanzania,-5.7,34.4833,
159045,Ilula,15,TZ,Tanzania,-3.9,32.9333,
159071,Ilongero,04,TZ,Tanzania,-7.76667,35.7,
159107,Ilembula,09,TZ,Tanzania,-9.48333,33.9,
159179,Ikungi,04,TZ,Tanzania,-7.6766,36.0366,
159186,Igurusi,16,TZ,Tanzania,-4.66667,34.8667,
159218,Igunga,30,TZ,Tanzania,-8.9,34.5833,
159267,Igugunu,16,TZ,Tanzania,-5.13333,34.7667,
159380,Ifakara,09,TZ,Tanzania,-8.85,33.85,
159386,Hedaru,17,TZ,Tanzania,-4.28333,33.8833,
159398,Geita,16,TZ,Tanzania,-4.56667,34.6333,
159492,Geiro,10,TZ,Tanzania,-8.13333,36.6833,
159647,Galappo,06,TZ,Tanzania,-4.5,37.9,
159908,Dongobesh,28,TZ,Tanzania,-2.86667,32.1667,
159909,Dodoma,10,TZ,Tanzania,-6.15,36.8667,
159951,Dar es Salaam,27,TZ,Tanzania,-4.26667,35.85,
160172,Dareda,27,TZ,Tanzania,-4.06667,35.3833,
160196,Chimala,03,TZ,Tanzania,-6.17221,35.7395,
160263,Chato,23,TZ,Tanzania,-6.82349,39.2695,
160266,Chanika,27,TZ,Tanzania,-4.21667,35.55,
160464,Chalinze,09,TZ,Tanzania,-8.85637,34.0239,
160552,Chala,28,TZ,Tanzania,-2.63778,31.7669,
160592,Chake Chake,18,TZ,Tanzania,-5.41667,38.0167,
160660,Butiama,02,TZ,Tanzania,-6.63784,38.354,
160670,Buseresere,24,TZ,Tanzania,-7.58333,31.2667,
160677,Bungu,20,TZ,Tanzania,-5.24586,39.7666,
160798,Bunda,08,TZ,Tanzania,-1.76667,33.9667,
160833,Bukoba,28,TZ,Tanzania,-3.02361,31.8747,
160877,Bugarama,02,TZ,Tanzania,-7.63369,39.0582,
160892,Biharamulo,08,TZ,Tanzania,-2.05,33.8667,
160961,Basotu,19,TZ,Tanzania,-1.33167,31.8122,
161023,Bashanet,19,TZ,Tanzania,-2.87056,30.5281,
161154,Bariadi,19,TZ,Tanzania,-2.63194,31.3089,
161197,Bagamoyo,27,TZ,Tanzania,-4.36667,35.0833,
161204,Babati,27,TZ,Tanzania,-4.23333,35.4167,
161218,Arusha,31,TZ,Tanzania,-2.8,33.9833,
161290,Balkanabat,02,TZ,Tanzania,-6.44222,38.9042,
161312,Kaka,27,TZ,Tanzania,-4.21667,35.75,
161325,Gumdag,26,TZ,Tanzania,-3.36667,36.6833,
161616,Gazanjyk,02,TM,Turkmenistan,39.5107,54.3671,
161901,Baharly,01,TM,Turkmenistan,37.3482,59.6143,
161943,Ashgabat,02,TM,Turkmenistan,39.2061,54.5906,
161974,Annau,02,TM,Turkmenistan,39.2446,55.5154,
162099,Yabrud,01,TM,Turkmenistan,38.0541,58.1972,
162158,Tayyibat al Imam,01,TM,Turkmenistan,38.4362,57.4316,
162183,Tartouss,01,TM,Turkmenistan,37.95,58.3833,
162199,Tallkalakh,01,TM,Turkmenistan,37.8876,58.516,
162627,Tallbisah,08,SY,Syria,33.9692,36.6573,
163270,Tafas,10,SY,Syria,35.2659,36.7122,
163345,Tadmur,14,SY,Syria,34.889,35.8866,
163533,Tadif,11,SY,Syria,34.6684,36.2599,
163779,Souran,11,SY,Syria,34.8406,36.7309,
163806,Subaykhan,06,SY,Syria,32.7371,36.0665,
163808,Ash Shaykh Miskin,11,SY,Syria,34.5624,38.284,
163811,Saraqib,09,SY,Syria,36.3481,37.5309,
163915,Salqin,10,SY,Syria,35.2919,36.7485,
164025,As Salamiyah,07,SY,Syria,34.8531,40.5999,
164328,Satita,06,SY,Syria,32.8294,36.1593,
164816,Qatana,12,SY,Syria,35.8645,36.8059,
164898,Jasim,12,SY,Syria,36.1395,36.4541,
164947,Qarah,10,SY,Syria,35.0113,37.0532,
165060,Nubl,14,SY,Syria,34.8184,36.1138,
165929,Masyaf,08,SY,Syria,33.4376,36.0789,
165997,Manbij,06,SY,Syria,32.9923,36.0602,
166111,Khan Shaykhun,08,SY,Syria,34.1527,36.7415,
166331,Kafr Zayta,09,SY,Syria,36.3787,36.9929,
167046,Kafr Takharim,10,SY,Syria,35.0653,36.3406,
167357,Kafranbel,09,SY,Syria,36.5281,37.9549,
168325,Kafr Laha,12,SY,Syria,35.4421,36.651,
168620,Jisr ash Shughur,10,SY,Syria,35.3742,36.6033,
168629,Jayrud,12,SY,Syria,36.1168,36.5152,
168661,Jarabulus,12,SY,Syria,35.6138,36.5645,
168668,Jablah,11,SY,Syria,34.8947,36.4958,
169023,Inkhil,12,SY,Syria,35.8143,36.3206,
169113,Idlib,08,SY,Syria,33.8071,36.7386,
169179,Homs,09,SY,Syria,36.8175,38.0111,
169304,Harasta,02,SY,Syria,35.3621,35.9276,
169375,Hamah,06,SY,Syria,33.0181,36.1283,
169389,Halfaya,12,SY,Syria,35.9306,36.6339,
169577,Aleppo,11,SY,Syria,34.7268,36.7234,
169897,Douma,08,SY,Syria,33.5587,36.3652,
170017,Damascus,10,SY,Syria,35.1318,36.7578,
170044,Dayr Hafir,10,SY,Syria,35.2601,36.6058,
170063,Deir ez-Zor,09,SY,Syria,36.2012,37.1612,
170592,Ad Darbasiyah,08,SY,Syria,33.5718,36.4027,
170654,Darayya,13,SY,Syria,33.5102,36.2913,
170785,Binnish,09,SY,Syria,36.1569,37.7078,
170794,Baniyas,07,SY,Syria,35.3359,40.1408,
170887,Az Zabadani,01,SY,Syria,37.0728,40.652,
170892,At Tall,08,SY,Syria,33.4584,36.2326,
171451,Ath Thawrah,12,SY,Syria,35.9566,36.7138,
171830,As Sanamayn,14,SY,Syria,35.1819,35.9487,
172059,As Safirah,08,SY,Syria,33.7249,36.1005,
172349,Ar Rastan,08,SY,Syria,33.6103,36.3107,
172374,Ar Raqqah,04,SY,Syria,35.8376,38.5483,
172469,An Nabk,06,SY,Syria,33.0719,36.1832,
172503,Al Qutayfah,09,SY,Syria,36.077,37.3725,
172946,Al Qusayr,11,SY,Syria,34.9265,36.7324,
172955,Al Qunaytirah,04,SY,Syria,35.9528,39.0079,
173193,Al Qaryatayn,08,SY,Syria,34.0255,36.7284,
173312,Al Mayadin,08,SY,Syria,33.7385,36.6007,
173322,Latakia,11,SY,Syria,34.5091,36.5798,
173334,Al Kiswah,03,SY,Syria,33.1259,35.8246,
173361,Al Hasakah,11,SY,Syria,34.2296,37.2407,
173480,Al Harak,07,SY,Syria,35.0198,40.4515,
173576,Al Bab,02,SY,Syria,35.5317,35.7901,
173598,Ad Dana,08,SY,Syria,33.3581,36.2419,
173811,Albu Kamal,01,SY,Syria,36.5024,40.7477,
173819,Hajin,06,SY,Syria,32.7493,36.3099,
174018,Kapan,09,SY,Syria,36.3705,37.5157,
174259,Goris,12,SY,Syria,36.2125,36.7698,
174448,Artashat,07,SY,Syria,34.4523,40.9185,
174506,Ararat,07,SY,Syria,34.6951,40.8314,
174875,Nchelenge,08,AM,Armenia,39.2076,46.4058,
174895,Mbala,08,AM,Armenia,39.5111,46.3417,
174979,Kawambwa,02,AM,Armenia,39.9614,44.5445,
174991,Webuye,02,AM,Armenia,39.8307,44.7057,
175499,Wajir,04,ZM,Zambia,-9.34506,28.734,
176146,Voi,05,ZM,Zambia,-8.84024,31.3659,
176555,Thika,04,ZM,Zambia,-9.7915,29.0791,
178202,Rongai,12,KE,Kenya,0.60751,34.7697,
178443,Pumwani,54,KE,Kenya,1.7471,40.0573,
178522,Nyeri,47,KE,Kenya,-3.39605,38.5561,
179330,Nyahururu,05,KE,Kenya,-1.03326,37.0693,
181135,Narok,39,KE,Kenya,-0.17333,35.8638,
181501,Nanyuki,05,KE,Kenya,-1.28333,36.85,
182701,Nakuru,44,KE,Kenya,-0.42013,36.9476,
183027,Naivasha,29,KE,Kenya,0.0421,36.3673,
184379,Nairobi,41,KE,Kenya,-1.07829,35.8601,
184433,Mumias,29,KE,Kenya,0.01667,37.0728,
184622,Muhoroni,39,KE,Kenya,-0.28333,36.0667,
184707,Moyale,39,KE,Kenya,-0.71667,36.4359,
184745,Mombasa,05,KE,Kenya,-1.28333,36.8167,
185702,Molo,20,KE,Kenya,0.33511,34.4864,
185939,Migori,26,KE,Kenya,-0.15406,35.1988,
186180,Meru,34,KE,Kenya,3.5216,39.0547,
186301,Mbale,37,KE,Kenya,-4.05466,39.6636,
186315,Marsabit,39,KE,Kenya,-0.2479,35.7374,
186731,Maralal,36,KE,Kenya,-1.06343,34.4731,
186827,Mandera,35,KE,Kenya,0.04626,37.6559,
187110,Malindi,53,KE,Kenya,-3.4,38.3833,
187585,Makueni,34,KE,Kenya,2.32839,37.9899,
187725,Machakos,45,KE,Kenya,1.09679,36.698,
187896,Lugulu,33,KE,Kenya,3.93726,41.8569,
187968,Lodwar,23,KE,Kenya,-3.21799,40.1169,
188080,Lamu,32,KE,Kenya,-1.80409,37.6203,
188492,Kitui,31,KE,Kenya,-1.51667,37.2667,
188657,Kitale,13,KE,Kenya,0.39361,34.3053,
189280,Kisumu,51,KE,Kenya,3.11911,35.5973,
189741,Kisii,30,KE,Kenya,-2.27169,40.902,
191038,Kilifi,27,KE,Kenya,-1.36696,38.0106,
191220,Kiambu,50,KE,Kenya,1.01572,35.0062,
191245,Keruguya,26,KE,Kenya,-0.10221,34.7617,
191299,Kericho,25,KE,Kenya,-0.68174,34.7667,
192067,Karuri,23,KE,Kenya,-3.63045,39.8499,
192710,Kapenguria,22,KE,Kenya,-1.16667,36.8333,
192859,Kakamega,24,KE,Kenya,-0.49887,37.2803,
192900,Kabarnet,21,KE,Kenya,-0.36774,35.2831,
193627,Isiolo,38,KE,Kenya,-0.7,37.1833,
194160,Homa Bay,55,KE,Kenya,1.23333,35.1167,
195272,Garissa,20,KE,Kenya,0.28422,34.7523,
195821,Embu,10,KE,Kenya,0.49194,35.743,
196231,Eldoret,18,KE,Kenya,0.35462,37.5822,
196742,Busia,17,KE,Kenya,-0.52731,34.4571,
197745,Bungoma,16,KE,Kenya,-0.45275,39.646,
198476,Athi River,15,KE,Kenya,-0.53112,37.4506,
198629,Rwamagana,52,KE,Kenya,0.52036,35.2699,
199989,Musanze,13,KE,Kenya,0.46005,34.1117,
200067,Kigali,12,KE,Kenya,0.5635,34.5606,
200787,Kibuye,31,KE,Kenya,-1.4563,36.9783,
201463,Kibungo,11,RW,Rwanda,-1.9487,30.4347,
201521,Gitarama,13,RW,Rwanda,-1.49984,29.635,
201865,Cyangugu,15,RW,Rwanda,-2.479,29.5564,
202061,Gisenyi,12,RW,Rwanda,-1.94995,30.0588,
202065,Byumba,14,RW,Rwanda,-2.06028,29.3478,
202068,Butare,11,RW,Rwanda,-2.1597,30.5427,
202217,Yangambi,15,RW,Rwanda,-2.07444,29.7567,
202326,Watsa,14,RW,Rwanda,-2.4846,28.9075,
202905,Wamba,14,RW,Rwanda,-1.70278,29.2564,
203104,Uvira,13,RW,Rwanda,-1.5763,30.0675,
203112,Tshikapa,15,RW,Rwanda,-2.59667,29.7394,
203717,Sake,30,CD,Congo, Democratic Republic of The,0.76755,24.4397
204283,Mwene-Ditu,16,CD,Congo, Democratic Republic of The,3.03716,29.5355
204318,Mweka,16,CD,Congo, Democratic Republic of The,2.14838,27.9947
204405,Mbuji-Mayi,12,CD,Congo, Democratic Republic of The,-3.39534,29.1378
204953,Lusambo,18,CD,Congo, Democratic Republic of The,-6.41621,20.7999
205970,Luebo,11,CD,Congo, Democratic Republic of The,-1.57386,29.0434
207570,Lubao,21,CD,Congo, Democratic Republic of The,-7.00906,23.4528
207596,Lodja,18,CD,Congo, Democratic Republic of The,-4.85187,21.5595
209228,Lisala,04,CD,Congo, Democratic Republic of The,-6.13603,23.5898
210379,Kongolo,27,CD,Congo, Democratic Republic of The,-4.97503,23.4439
210939,Kisangani,18,CD,Congo, Democratic Republic of The,-5.35218,21.4219
211098,Kindu,21,CD,Congo, Democratic Republic of The,-5.38771,25.7488
211647,Kasongo,27,CD,Congo, Democratic Republic of The,-3.52105,23.6005
211734,Kananga,02,CD,Congo, Democratic Republic of The,2.15127,21.5167
212360,Kampene,29,CD,Congo, Democratic Republic of The,-5.38532,27.0003
212730,Kamina,30,CD,Congo, Democratic Republic of The,0.51528,25.191
212902,Kalemie,10,CD,Congo, Democratic Republic of The,-2.94373,25.9224
213940,Kabinda,10,CD,Congo, Democratic Republic of The,-4.42741,26.6666
214481,Kabare,23,CD,Congo, Democratic Republic of The,-5.89624,22.4166
214575,Kabalo,10,CD,Congo, Democratic Republic of The,-3.59678,26.6672
214614,Isiro,15,CD,Congo, Democratic Republic of The,-8.73508,24.998
214974,Ilebo,29,CD,Congo, Democratic Republic of The,-5.94749,29.1947
215527,Goma,04,CD,Congo, Democratic Republic of The,-6.13791,24.4818
215605,Gbadolite,12,CD,Congo, Democratic Republic of The,-2.49682,28.7908
215668,Gandajika,29,CD,Congo, Democratic Republic of The,-6.05255,26.9143
215771,Demba,16,CD,Congo, Democratic Republic of The,2.77391,27.616
215976,Butembo,18,CD,Congo, Democratic Republic of The,-4.33111,20.5864
216281,Buta,11,CD,Congo, Democratic Republic of The,-1.67409,29.2285
216404,Businga,26,CD,Congo, Democratic Republic of The,4.279,21.0028
216449,Bunia,04,CD,Congo, Democratic Republic of The,-6.74504,23.9533
217389,Bumba,23,CD,Congo, Democratic Republic of The,-5.49573,22.2696
217562,Bukavu,11,CD,Congo, Democratic Republic of The,0.14164,29.2912
217570,Bukama,13,CD,Congo, Democratic Republic of The,2.78582,24.73
217637,Bondo,26,CD,Congo, Democratic Republic of The,3.33863,20.8858
217695,Boende,17,CD,Congo, Democratic Republic of The,1.55941,30.2522
217745,Beni,25,CD,Congo, Democratic Republic of The,2.18771,22.4683
217831,Basoko,12,CD,Congo, Democratic Republic of The,-2.49077,28.8428
217834,Aketi,15,CD,Congo, Democratic Republic of The,-9.20443,25.8547
218253,Tadjoura,13,CD,Congo, Democratic Republic of The,3.81461,23.6866
218680,Obock,31,CD,Congo, Democratic Republic of The,-0.28163,20.8805
219057,Djibouti,11,CD,Congo, Democratic Republic of The,0.49113,29.4731
219414,Danan,30,CD,Congo, Democratic Republic of The,1.23909,23.616
220448,'Ali Sabieh,13,CD,Congo, Democratic Republic of The,2.73877,23.7833
220782,Yumbe,05,DJ,Djibouti,11.7853,42.8844,
221527,Wobulenzi,04,DJ,Djibouti,11.9631,43.2906,
223817,Wakiso,07,DJ,Djibouti,11.589,43.145,
224152,Tororo,01,DJ,Djibouti,11.1833,42.9333,
225284,Soroti,01,DJ,Djibouti,11.1558,42.7125,
225835,Pallisa,N,UG,Busoga Province,3.46506,31.2469,
225858,Paidha,C,UG,Busoga Province,0.72833,32.5122,
225964,Nyachera,C,UG,Busoga Province,0.40444,32.4594,
226110,Ntungamo,E,UG,Busoga Province,0.69299,34.1809,
226234,Njeru,E,UG,Busoga Province,1.71464,33.6111,
226823,Nebbi,E,UG,Busoga Province,1.145,33.7094,
226853,Namasuba,N,UG,Busoga Province,2.41669,30.9855,
227528,Mukono,W,UG,Busoga Province,-0.9,30.4167,
227592,Mubende,W,UG,Busoga Province,-0.88333,29.65,
227593,Moyo,W,UG,Busoga Province,-0.87944,30.2642,
227812,Mityana,C,UG,Busoga Province,0.44166,33.1792,
227904,Mbarara,N,UG,Busoga Province,2.47826,31.0889,
228227,Masindi,C,UG,Busoga Province,0.68944,32.4214,
228853,Masaka,C,UG,Busoga Province,0.35333,32.7553,
228971,Luwero,C,UG,Busoga Province,0.55849,31.3949,
229059,Lugazi,N,UG,Busoga Province,3.66088,31.7247,
229139,Lira,C,UG,Busoga Province,0.4175,32.0228,
229268,Kyenjojo,W,UG,Busoga Province,-0.60467,30.6485,
229278,Kotido,E,UG,Busoga Province,1.08209,34.175,
229362,Kitgum,W,UG,Busoga Province,1.67444,31.715,
229380,Kireka,C,UG,Busoga Province,-0.33379,31.7341,
229746,Kayunga,C,UG,Busoga Province,0.84917,32.4731,
229911,Kasese,C,UG,Busoga Province,0.36788,32.9376,
230166,Kamwenge,N,UG,Busoga Province,2.2499,32.8998,
230299,Kampala,W,UG,Busoga Province,0.63278,30.6214,
230617,Kabale,N,UG,Busoga Province,2.98056,34.1331,
230893,Jinja,N,UG,Busoga Province,3.27833,32.8867,
231139,Iganga,C,UG,Busoga Province,0.3475,32.6492,
231696,Ibanda,C,UG,Busoga Province,0.7025,32.8886,
232066,Hoima,W,UG,Busoga Province,0.18333,30.0833,
232371,Gulu,W,UG,Busoga Province,0.1866,30.4539,
232422,Fort Portal,C,UG,Busoga Province,0.31628,32.5822,
233070,Entebbe,W,UG,Busoga Province,-1.24857,29.9899,
233114,Bwizibwera,E,UG,Busoga Province,0.43902,33.2032,
233275,Buwenge,E,UG,Busoga Province,0.60917,33.4686,
233299,Busembatia,W,UG,Busoga Province,-0.13398,30.4962,
233312,Bundibugyo,W,UG,Busoga Province,1.43314,31.3524,
233346,Bugiri,N,UG,Busoga Province,2.77457,32.299,
233476,Arua,W,UG,Busoga Province,0.66174,30.2748,
233508,Adjumani,C,UG,Busoga Province,0.06444,32.4469,
233730,Karonga,W,UG,Busoga Province,-0.59167,30.6286,
233886,Mobaye,E,UG,Busoga Province,0.64222,33.1744,
234077,Ippy,E,UG,Busoga Province,0.46588,34.0922,
234092,Bria,E,UG,Busoga Province,0.76972,33.6131,
234178,Bangassou,W,UG,Busoga Province,0.71117,30.0647,
234565,Bambari,E,UG,Busoga Province,0.57139,33.7417,
235039,Victoria,N,UG,Busoga Province,3.02013,30.9111,
235489,Fada,N,UG,Busoga Province,3.37786,31.7909,
235715,Am Timan,N,MW,Malawi,-9.93333,33.9333,
237478,Abeche,02,CF,Central African Republic,4.31902,21.1786,
238566,Wadi as Sir,11,CF,Central African Republic,6.26793,21.2247,
239899,Umm as Summaq,03,CF,Central African Republic,6.54233,21.9863,
240498,Sahab,08,CF,Central African Republic,4.74132,22.8184,
240604,Ma'an,11,CF,Central African Republic,5.76795,20.6756,
241131,Kurayyimah,26,SC,Seychelles,-4.61667,55.45,
244128,Judita,28,TD,Chad,17.1854,21.5811,
245338,Jarash,13,TD,Chad,11.0297,20.2827,
245785,Irbid,12,TD,Chad,13.8292,20.8324,
246013,Zarqa,16,JO,Jordan,31.9545,35.8183,
246314,Aydun,16,JO,Jordan,31.8854,35.8543,
247105,At Tafilah,16,JO,Jordan,31.8703,36.0048,
248382,As Salt,19,JO,Jordan,30.1962,35.7341,
248414,Safi,18,JO,Jordan,32.2764,35.5994,
248803,Ar Ramtha,18,JO,Jordan,32.4079,35.708,
248875,Amman,22,JO,Jordan,32.2808,35.8993,
248946,Hayy al Quwaysimah,18,JO,Jordan,32.5556,35.85,
250090,Mafraq,17,JO,Jordan,32.0728,36.088,
250152,Qir Moav,18,JO,Jordan,32.5103,35.8544,
250198,Al Jubayhah,12,JO,Jordan,30.8375,35.6044,
250258,Aqaba,02,JO,Jordan,32.0392,35.7272,
250267,Voula,09,JO,Jordan,31.0361,35.4654,
250336,Volos,18,JO,Jordan,32.5587,36.0082,
250441,Vyronas,16,JO,Jordan,31.9552,35.945,
250461,Vari,16,JO,Jordan,31.9104,35.9497,
250582,Tripoli,15,JO,Jordan,32.3429,36.208,
250624,Trikala,19,JO,Jordan,31.1825,35.7,
250637,Thivai,16,JO,Jordan,32.0107,35.898,
250774,Sparti,21,JO,Jordan,29.5267,35.0078,
251780,Salamina,ESYE31,GR,Piraios Nomos,37.8422,23.7765,
251833,Rethymno,ESYE14,GR,Piraios Nomos,39.361,22.9425,
251948,Preveza,ESYE31,GR,Piraios Nomos,37.961,23.753,
252270,Pyrgos,ESYE31,GR,Piraios Nomos,37.8332,23.8031,
252601,Piraeus,ESYE25,GR,Piraios Nomos,37.5089,22.3794,
252664,Petroupolis,ESYE14,GR,Piraios Nomos,39.5549,21.7684,
252910,Peristeri,ESYE24,GR,Piraios Nomos,38.325,23.3189,
253394,Perama,ESYE25,GR,Piraios Nomos,37.0745,22.4301,
254144,Patra,ESYE31,GR,Piraios Nomos,37.9643,23.4965,
254352,Palaio Faliro,ESYE43,GR,Piraios Nomos,35.3656,24.4823,
254698,Nikaia,ESYE21,GR,Piraios Nomos,38.9562,20.7505,
255229,Nea Smyrni,ESYE23,GR,Piraios Nomos,37.6751,21.441,
255274,Nea Makri,ESYE31,GR,Piraios Nomos,37.9474,23.6371,
255377,Ilion,ESYE31,GR,Piraios Nomos,38.0419,23.6849,
255524,Nea Ionia,ESYE31,GR,Piraios Nomos,38.0154,23.6919,
255588,Nea Filadelfeia,ESYE31,GR,Piraios Nomos,37.9678,23.5721,
255683,Nea Erythraia,ESYE23,GR,Piraios Nomos,38.2444,21.7344,
256075,Moskhaton,ESYE31,GR,Piraios Nomos,37.9281,23.701,
256429,Mytilene,ESYE31,GR,Piraios Nomos,37.9667,23.65,
256575,Melissia,ESYE31,GR,Piraios Nomos,37.945,23.7142,
256598,Megara,ESYE31,GR,Piraios Nomos,38.0873,23.9764,
256601,Artemida,ESYE31,GR,Piraios Nomos,38.0333,23.7,
256614,Livadeia,ESYE31,GR,Piraios Nomos,38.0357,23.7573,
256621,Larisa,ESYE31,GR,Piraios Nomos,38.0349,23.7381,
256622,Lamia,ESYE31,GR,Piraios Nomos,38.0927,23.8222,
256750,Metamorfosi,ESYE31,GR,Piraios Nomos,37.9479,23.6788,
256866,Kos,ESYE41,GR,Piraios Nomos,39.1077,26.5553,
257302,Koropi,ESYE31,GR,Piraios Nomos,38.05,23.8333,
257365,Korinthos,ESYE31,GR,Piraios Nomos,37.9947,23.3432,
258038,Kifisia,ESYE31,GR,Piraios Nomos,37.9673,23.9968,
258463,Cholargos,ESYE24,GR,Piraios Nomos,38.4362,22.8766,
258576,Chios,ESYE14,GR,Piraios Nomos,39.6369,22.4176,
258620,Chania,ESYE24,GR,Piraios Nomos,38.9,22.4333,
259128,Chalkida,ESYE31,GR,Piraios Nomos,38.0658,23.7636,
259245,Khalandrion,ESYE42,GR,Piraios Nomos,36.8933,27.2889,
259251,Chaidari,ESYE31,GR,Piraios Nomos,37.8989,23.8718,
259289,Keratsini,ESYE25,GR,Piraios Nomos,37.9401,22.9513,
259824,Karditsa,ESYE31,GR,Piraios Nomos,38.0744,23.8111,
259949,Kamateron,ESYE31,GR,Piraios Nomos,38,23.8,
259973,Kallithea,ESYE41,GR,Piraios Nomos,38.3678,26.1358,
260114,Kalamata,ESYE43,GR,Piraios Nomos,35.5112,24.0292,
260133,Alimos,ESYE24,GR,Piraios Nomos,38.4635,23.6028,
260172,Kaisariani,ESYE31,GR,Piraios Nomos,38.0237,23.8007,
260183,Irakleio,ESYE31,GR,Piraios Nomos,38.0113,23.666,
260204,Irakleion,ESYE31,GR,Piraios Nomos,37.9625,23.6197,
260989,Ioannina,ESYE14,GR,Piraios Nomos,39.3648,21.9219,
261249,Glyfada,ESYE31,GR,Piraios Nomos,38.0559,23.7052,
261414,Galatsi,ESYE31,GR,Piraios Nomos,37.95,23.7,
261604,Elliniko,ESYE25,GR,Piraios Nomos,37.0391,22.1126,
261614,Elefsina,ESYE31,GR,Piraios Nomos,37.9103,23.7236,
261678,Dhafni,ESYE31,GR,Piraios Nomos,37.9634,23.7652,
261743,Agios Dimitrios,ESYE31,GR,Piraios Nomos,38.0528,23.7652,
261745,Agia Varvara,ESYE43,GR,Piraios Nomos,35.3279,25.1434,
261779,Agia Paraskevi,ESYE21,GR,Piraios Nomos,39.6649,20.8519,
262036,Athens,ESYE31,GR,Piraios Nomos,37.8629,23.758,
262135,Aspropyrgos,ESYE31,GR,Piraios Nomos,38.0167,23.75,
262719,Argyroupoli,ESYE31,GR,Piraios Nomos,37.8901,23.7441,
262752,Arta,ESYE31,GR,Piraios Nomos,38.0414,23.5429,
263312,Argos,ESYE31,GR,Piraios Nomos,37.95,23.7344,
263986,Ano Liosia,ESYE31,GR,Piraios Nomos,37.9333,23.7333,
264111,Marousi,ESYE31,GR,Piraios Nomos,37.9894,23.6601,
264194,Amaliada,ESYE31,GR,Piraios Nomos,38.0167,23.8333,
264371,Acharnes,ESYE31,GR,Piraios Nomos,37.9795,23.7162,
264445,Aigio,ESYE31,GR,Piraios Nomos,38.0613,23.5897,
264516,Aigaleo,ESYE31,GR,Piraios Nomos,37.9059,23.7504,
264559,Agrinio,ESYE21,GR,Piraios Nomos,39.1601,20.9856,
264670,Zahle,ESYE25,GR,Piraios Nomos,37.6333,22.7333,
264888,Tyre,ESYE31,GR,Piraios Nomos,38.0833,23.7,
265243,Sidon,ESYE31,GR,Piraios Nomos,38.05,23.8,
265252,Djounie,ESYE23,GR,Piraios Nomos,37.7984,21.3507,
265488,Jbail,ESYE31,GR,Piraios Nomos,38.0833,23.7333,
265500,Habbouch,ESYE23,GR,Piraios Nomos,38.2486,22.0819,
265533,Bcharre,ESYE31,GR,Piraios Nomos,37.9833,23.6833,
265560,Beirut,ESYE23,GR,Piraios Nomos,38.6214,21.4078,
266045,Baalbek,08,LB,Lebanon,33.8467,35.902,
266826,En Naqoura,09,LB,Lebanon,34.4367,35.8497,
267008,Nabatiye et Tahta,06,LB,Lebanon,33.2733,35.1939,
268064,Rafah,06,LB,Lebanon,33.5599,35.3756,
273140,An Nusayrat,05,LB,Lebanon,33.9808,35.6178,
273203,Khan Yunis,05,LB,Lebanon,34.1211,35.6481,
274874,Jabalya,07,LB,Lebanon,33.4073,35.4817,
276359,Gaza,09,LB,Lebanon,34.2508,36.0106,
276781,Dayr al Balah,04,LB,Lebanon,33.8889,35.4944,
277130,Bayt Lahya,11,LB,Lebanon,34.0058,36.2181,
278832,Bayt Hanun,06,LB,Lebanon,33.1181,35.1397,
278913,Bani Suhayla,07,LB,Lebanon,33.3789,35.4839,
281102,Al Burayj,GZ,PS,Palestine,31.287,34.2595,
281109,Jerusalem,GZ,PS,Palestine,31.4486,34.3925,
281124,Yuta,GZ,PS,Palestine,31.3402,34.3063,
281129,Tulkarm,GZ,PS,Palestine,31.5272,34.4835,
281133,Tubas,GZ,PS,Palestine,31.5,34.4667,
281141,Kiryat Netafim,GZ,PS,Palestine,31.4178,34.3503,
281145,Ramallah,GZ,PS,Palestine,31.5464,34.4951,
281146,Qalqilyah,GZ,PS,Palestine,31.5353,34.5358,
281148,Qabatiyah,GZ,PS,Palestine,31.3434,34.3234,
281161,Har Adar,GZ,PS,Palestine,31.4394,34.4031,
281184,Nablus,6,IL,Israel,31.769,35.2163,
281292,Janin,WE,PS,Palestine,31.4459,35.0944,
281577,Idhna,WE,PS,Palestine,32.3104,35.0286,
281581,Halhul,WE,PS,Palestine,32.3209,35.3699,
282163,Dura,,IL,Israel,32.1169,35.1122,
282239,Bethlehem,WE,PS,Palestine,31.8996,35.2042,
282457,Bayt Jala,WE,PS,Palestine,32.1897,34.9706,
282476,Balatah,WE,PS,Palestine,32.4104,35.2809,
282582,Ar Ram wa Dahiyat al Barid,6,IL,Israel,31.8275,35.1309,
282615,Jericho,WE,PS,Palestine,32.2211,35.2544,
283506,Al Yamun,WE,PS,Palestine,32.4594,35.3009,
283621,Hebron,WE,PS,Palestine,31.5587,34.9744,
283806,Al Birah,WE,PS,Palestine,31.5803,35.1018,
284011,Sur,WE,PS,Palestine,31.5078,35.0293,
284315,Sohar,WE,PS,Palestine,31.7049,35.2038,
284324,Shinas,WE,PS,Palestine,31.7155,35.1879,
284446,Salalah,WE,PS,Palestine,32.2121,35.2856,
284890,Saham,WE,PS,Palestine,31.8494,35.2342,
284899,Nizwa,WE,PS,Palestine,31.8667,35.45,
284999,Muscat,WE,PS,Palestine,32.4856,35.2301,
285066,Khasab,WE,PS,Palestine,31.5294,35.0938,
285108,Izki,WE,PS,Palestine,31.91,35.2164,
286245,Bidbid,04,OM,Oman,22.5667,59.5289,
286282,Bawshar,11,OM,Oman,24.3502,56.7076,
286402,Badiyah,11,OM,Oman,24.7433,56.4658,
286621,As Suwayq,08,OM,Oman,17.0151,54.0924,
286647,Seeb,11,OM,Oman,24.1722,56.8886,
286987,Rustaq,01,OM,Oman,22.9333,57.5333,
287286,Al Khaburah,06,OM,Oman,23.5841,58.4078,
287614,Al Buraymi,07,OM,Oman,26.1799,56.2477,
287814,Adam,01,OM,Oman,22.9333,57.7667,
288721,Umm Salal Muhammad,01,OM,Oman,23.4079,58.1283,
288764,Ar Rayyan,06,OM,Oman,23.5556,58.3989,
288902,Al Wakrah,12,OM,Oman,22.45,58.8,
288955,Al Khawr,11,OM,Oman,23.8494,57.4386,
288967,Doha,06,OM,Oman,23.6703,58.1891,
289011,Sitrah,02,OM,Oman,23.3908,57.4244,
289199,Jidd Hafs,11,OM,Oman,23.9886,57.0984,
289317,Madinat Hamad,10,OM,Oman,24.2509,55.7931,
289433,Dar Kulayb,01,OM,Oman,22.3756,57.5233,
289523,Al Muharraq,09,QA,Qatar,25.4152,51.4065,
289888,Manama,06,QA,Qatar,25.2919,51.4244,
289915,Umm al Qaywayn,10,QA,Qatar,25.1715,51.6034,
289962,Ras al-Khaimah,04,QA,Qatar,25.6839,51.5058,
290030,Khawr Fakkan,01,QA,Qatar,25.2793,51.5224,
290104,Dubai,16,BH,Bahrain,26.1547,50.6206,
290215,Dibba Al-Fujairah,16,BH,Bahrain,26.2186,50.5478,
290247,Dibba Al-Hisn,18,BH,Bahrain,26.1153,50.5069,
290269,Sharjah,17,BH,Bahrain,26.0686,50.5039,
290332,Ar Ruways,15,BH,Bahrain,26.2572,50.6119,
290340,Al Fujayrah,16,BH,Bahrain,26.2279,50.5857,
290594,Al Ain,07,AE,United Arab Emirates,25.5647,55.5552,
291074,Ajman,05,AE,United Arab Emirates,25.7895,55.9432,
291696,Adh Dhayd,06,AE,United Arab Emirates,25.3313,56.342,
292223,Abu Dhabi,03,AE,United Arab Emirates,25.0657,55.1713,
292231,Zour Moshe,04,AE,United Arab Emirates,25.5925,56.2618,
292239,Tzova,04,AE,United Arab Emirates,25.6196,56.2729,
292672,Safed,06,AE,United Arab Emirates,25.3374,55.4121,
292688,Yehud,01,AE,United Arab Emirates,24.1103,52.7306,
292878,Yavne,04,AE,United Arab Emirates,25.1164,56.3414,
292913,Yafo,01,AE,United Arab Emirates,24.1917,55.7606,
292932,Tirat Karmel,02,AE,United Arab Emirates,25.4111,55.435,
292953,Timrat,06,AE,United Arab Emirates,25.2881,55.8816,
292968,Tiberias,01,AE,United Arab Emirates,24.4667,54.3667,
293014,Tel Mond,2,IL,Israel,32.2982,34.9131,
293023,Tel Aviv,6,IL,Israel,31.7838,35.1193,
293100,Tamra,3,IL,Israel,32.9646,35.496,
293207,Shelomi,2,IL,Israel,32.0332,34.8909,
293222,Sederot,2,IL,Israel,31.8808,34.7384,
293253,Savyon,5,IL,Israel,32.0504,34.7522,
293308,Rosh Pinna,4,IL,Israel,32.7602,34.9718,
293310,Rosh Haayin,3,IL,Israel,32.703,35.2236,
293322,Rishon Lezion,3,IL,Israel,32.7922,35.5312,
293354,Rekhasim,2,IL,Israel,32.25,34.9174,
293397,Ramla,5,IL,Israel,32.0809,34.7806,
293426,Ramat Yishay,3,IL,Israel,32.853,35.1987,
293522,Ramat HaSharon,3,IL,Israel,33.0722,35.1445,
293619,Ramat Gan,1,IL,Israel,31.525,34.5969,
293633,Ra'anana,2,IL,Israel,32.0497,34.8777,
293688,Qiryat Yam,3,IL,Israel,32.9689,35.5426,
293690,Qiryat Shemona,2,IL,Israel,32.0956,34.9566,
293703,Qiryat Moqin,2,IL,Israel,31.971,34.7894,
293721,Qiryat Gat,4,IL,Israel,32.7491,35.099,
293768,Qiryat Bialik,2,IL,Israel,31.9292,34.8656,
293773,Qiryat Ata,3,IL,Israel,32.7044,35.1707,
293783,Qalansuwa,5,IL,Israel,32.1461,34.8394,
293788,Peta Tiqwa,5,IL,Israel,32.0823,34.8106,
293807,Pardesiyya,2,IL,Israel,32.1836,34.8739,
293822,Or Yehuda,4,IL,Israel,32.8497,35.0697,
293825,Ofaqim,3,IL,Israel,33.2073,35.5721,
293831,Nordiyya,4,IL,Israel,32.8371,35.0776,
293842,Netivot,1,IL,Israel,31.61,34.7642,
293844,Netiv HaLamed He,4,IL,Israel,32.8275,35.0858,
293845,Netanya,4,IL,Israel,32.8115,35.1132,
293896,Ness Ziona,2,IL,Israel,32.2849,34.9811,
293918,Nesher,2,IL,Israel,32.0871,34.8875,
293942,Nein,2,IL,Israel,32.3058,34.9091,
293962,Nealim,5,IL,Israel,32.0292,34.8579,
293992,Nazareth,1,IL,Israel,31.3141,34.6203,
294003,Nahariya,2,IL,Israel,32.3147,34.8962,
294068,Mitzpe Ramon,1,IL,Israel,31.423,34.5891,
294070,Miily,6,IL,Israel,31.6875,34.9827,
294071,Mevo Modiim,2,IL,Israel,32.3329,34.8599,
294074,Mevo Betar,2,IL,Israel,31.9293,34.7987,
294078,Metulla,4,IL,Israel,32.7662,35.0443,
294089,Mazkeret Batya,3,IL,Israel,32.6306,35.3489,
294093,Lod,2,IL,Israel,32.0601,34.9107,
294098,Kefar Yona,3,IL,Israel,32.6992,35.3048,
294117,Kefar Tavor,3,IL,Israel,33.0113,35.0947,
294166,Kefar Shemaryahu,1,IL,Israel,30.6094,34.8011,
294205,Kfar Saba,3,IL,Israel,33.0278,35.2566,
294243,Kefar Rosh HaNiqra,0,IL,Israel,31.9335,34.987,
294244,Kafir Yasif,6,IL,Israel,31.7218,35.1067,
294247,Holon,3,IL,Israel,33.2792,35.5795,
294303,Hod HaSharon,2,IL,Israel,31.8536,34.8465,
294421,Herzliyya,2,IL,Israel,31.9467,34.8903,
294492,Haifa,2,IL,Israel,32.3167,34.9351,
294502,Hadera,3,IL,Israel,32.6866,35.4212,
294508,Givat Shemul,5,IL,Israel,32.1853,34.8208,
294514,Givatayim,2,IL,Israel,32.175,34.9069,
294517,Gedera,3,IL,Israel,33.0861,35.1135,
294600,Gan Yavne,3,IL,Israel,32.9545,35.1623,
294751,Gann Tiqwa,5,IL,Israel,32.0103,34.7792,
294760,Pasuta,2,IL,Israel,32.1593,34.8932,
294778,Even Yehuda,5,IL,Israel,32.1663,34.8254,
294801,Tirah,4,IL,Israel,32.8184,34.9885,
294946,E aiyiba,4,IL,Israel,32.4419,34.9039,
294981,Esh Sheikh Dannn,5,IL,Israel,32.0782,34.8486,
294999,Er Reina,5,IL,Israel,32.0723,34.8125,
295064,En Boqeq,2,IL,Israel,31.8146,34.78,
295080,Elyakhin,2,IL,Israel,31.7874,34.7066,
295089,El Mazraa,2,IL,Israel,32.0597,34.8732,
295104,El Fureids,3,IL,Israel,33.049,35.3089,
295122,Eilat,2,IL,Israel,32.2696,34.8876,
295127,Eilabun,2,IL,Israel,32.2341,34.9502,
295130,Dimona,2,IL,Israel,32.2662,35.0089,
295157,Deir ann,3,IL,Israel,32.9941,35.148,
295174,Dliyat el Karmil,3,IL,Israel,32.7234,35.3162,
295224,Dabbrya,1,IL,Israel,31.1994,35.3625,
295232,Buqeia,2,IL,Israel,32.4079,34.9243,
295249,Bueina,3,IL,Israel,32.9834,35.0984,
295269,Br el Maksr,4,IL,Israel,32.5981,34.9515,
295277,Bet Yiaq,1,IL,Israel,29.5581,34.9482,
295291,Bet Shemesh,3,IL,Israel,32.8369,35.4003,
295328,Bet Shean,1,IL,Israel,31.0708,35.0327,
295339,Bet Dagan,3,IL,Israel,32.862,35.3637,
295365,Ben Beraq,4,IL,Israel,32.6938,35.0469,
295370,Bene 'Ayish,3,IL,Israel,32.6926,35.3712,
295379,Beit Jann,3,IL,Israel,32.9775,35.3335,
295380,Beersheba,3,IL,Israel,32.8064,35.3649,
295404,Bat Yam,3,IL,Israel,32.7773,35.2207,
295424,Basmat abn,2,IL,Israel,32.3275,34.8888,
295432,Azor,6,IL,Israel,31.7307,34.9929,
295435,Atlit,3,IL,Israel,32.4973,35.4963,
295475,Ashqelon,2,IL,Israel,32.0019,34.8298,
295514,Ashdod,5,IL,Israel,32.0807,34.8338,
295515,Arad,2,IL,Israel,31.7833,34.75,
295523,Akko,3,IL,Israel,32.9646,35.3815,
295530,Afula Illit,1,IL,Israel,31.2518,34.7913,
295548,Ab Ghaush,5,IL,Israel,32.0238,34.7519,
295553,Yuksekova,3,IL,Israel,32.739,35.1572,
295584,Yozgat,5,IL,Israel,32.0243,34.8063,
295613,Yesilli,4,IL,Israel,32.6889,34.9424,
295620,Erzin,1,IL,Israel,31.6693,34.5715,
295629,Yerkoy,1,IL,Israel,31.7921,34.6497,
295657,Didim,1,IL,Israel,31.2588,35.2128,
295721,Yatagan,3,IL,Israel,32.9281,35.0765,
295739,Yalvac,3,IL,Israel,32.6322,35.3253,
295772,Viransehir,6,IL,Israel,31.8059,35.1093,
296173,Varto,70,TR,Turkey,37.5736,44.2872,
296562,Van,66,TR,Turkey,39.82,34.8044,
296832,Cimin,72,TR,Turkey,37.3381,40.8174,
296852,Usak,31,TR,Turkey,36.9535,36.1984,
296895,Urla,66,TR,Turkey,39.6381,34.4672,
297090,Urgup,09,TR,Turkey,37.385,27.2564,
297564,Turgutlu,48,TR,Turkey,37.3402,28.1428,
297789,Tunceli,33,TR,Turkey,38.2956,31.1778,
298033,Tire,63,TR,Turkey,37.2235,39.7552,
298088,Tekirova,49,TR,Turkey,39.1738,41.454,
298117,Tatvan,65,TR,Turkey,38.4946,43.3832,
298230,Tarsus,24,TR,Turkey,39.7095,39.7001,
298299,Talas,64,TR,Turkey,38.6735,29.4058,
298316,Susurluk,35,TR,Turkey,38.3229,26.764,
298326,Suruc,50,TR,Turkey,38.6296,34.912,
298806,Sorgun,45,TR,Turkey,38.4953,27.6997,
298846,Soma,62,TR,Turkey,39.0992,39.5435,
299137,Solhan,35,TR,Turkey,38.0888,27.7351,
299445,Soke,07,TR,Turkey,36.5017,30.5272,
299582,Siverek,13,TR,Turkey,38.4922,42.2827,
299817,Sivas,32,TR,Turkey,36.9177,34.8928,
299900,Simav,38,TR,Turkey,38.6908,35.5538,
300058,Silvan,10,TR,Turkey,39.9136,28.1578,
300075,Silopi,63,TR,Turkey,36.9761,38.4253,
300352,Silifke,66,TR,Turkey,39.8101,35.186,
300371,Siirt,45,TR,Turkey,39.1855,27.6094,
300377,Seydisehir,12,TR,Turkey,38.9652,41.0544,
300399,Serinyol,09,TR,Turkey,37.7482,27.4061,
300614,Serik,63,TR,Turkey,37.755,39.3167,
300619,Sereflikochisar,58,TR,Turkey,39.7483,37.0161,
300791,Senirkent,43,TR,Turkey,39.0882,28.9777,
300796,Semdinli,21,TR,Turkey,38.1371,41.0082,
300797,Selcuk,80,TR,Turkey,37.2438,42.4635,
300808,Seferihisar,32,TR,Turkey,36.3778,33.9344,
300822,Sarkikaraagac,74,TR,Turkey,37.9293,41.9413,
301010,Saraykoy,71,TR,Turkey,37.4193,31.8453,
301089,Salihli,31,TR,Turkey,36.3614,36.2136,
301101,Patnos,07,TR,Turkey,36.9169,31.0989,
301116,Pasinler,68,TR,Turkey,38.9393,33.5386,
301172,Osmaniye,33,TR,Turkey,38.1044,30.5486,
301209,Ortakoy,70,TR,Turkey,37.3051,44.5742,
301256,Ortaca,35,TR,Turkey,37.9514,27.3685,
301350,Odemis,35,TR,Turkey,38.1975,26.8388,
301539,Nusaybin,33,TR,Turkey,38.0794,31.3664,
301827,Nizip,20,TR,Turkey,37.9245,28.9252,
302043,Nigde,45,TR,Turkey,38.4826,28.1477,
302819,Nevsehir,04,TR,Turkey,39.2249,42.8569,
302824,Nazilli,25,TR,Turkey,39.9798,41.67,
303195,Mut,91,TR,Turkey,37.0742,36.2478,
303290,Mus,75,TR,Turkey,38.7373,34.0387,
303354,Mugla,48,TR,Turkey,36.8391,28.7646,
303700,Mucur,35,TR,Turkey,38.2278,27.9695,
303750,Milas,72,TR,Turkey,37.0703,41.2146,
303798,Midyat,83,TR,Turkey,37.0097,37.7942,
303827,Mercin,73,TR,Turkey,37.9658,34.6794,
303831,Menemen,50,TR,Turkey,38.625,34.7122,
303873,Marmaris,09,TR,Turkey,37.9163,28.3223,
304013,Mardin,32,TR,Turkey,36.6439,33.4389,
304081,Manisa,49,TR,Turkey,38.7316,41.4848,
304184,Manavgat,48,TR,Turkey,37.2181,28.3665,
304196,Malazgirt,40,TR,Turkey,39.0615,34.3829,
304355,Malatya,48,TR,Turkey,37.3164,27.7839,
304382,Mahmutlar,72,TR,Turkey,37.4191,41.3391,
304531,Lice,32,TR,Turkey,36.7953,34.6179,
304612,Kutahya,35,TR,Turkey,38.6075,27.0694,
304782,Kurtalan,48,TR,Turkey,36.855,28.2742,
304797,Beykonak,72,TR,Turkey,37.3131,40.7436,
304827,Kulu,45,TR,Turkey,38.612,27.4265,
304854,Kulp,07,TR,Turkey,36.7867,31.4431,
304916,Kula,49,TR,Turkey,39.1465,42.5354,
304922,Kozluk,44,TR,Turkey,38.3502,38.3167,
304964,Kozan,07,TR,Turkey,36.4946,32.0909,
305089,Korkuteli,21,TR,Turkey,38.4582,40.6389,
305268,Konya,43,TR,Turkey,39.4242,29.9833,
305532,Serinhisar,74,TR,Turkey,37.9253,41.6849,
305680,Kilis,07,TR,Turkey,36.3257,30.303,
305742,Keskin,71,TR,Turkey,39.0951,33.0799,
305750,Kemer,21,TR,Turkey,38.4975,41.0067,
305810,Kemalpasa,45,TR,Turkey,38.5473,28.6498,
306041,Kayseri,76,TR,Turkey,38.1912,41.4777,
306112,Karaman,81,TR,Turkey,37.4552,35.8157,
306474,Karakocan,07,TR,Turkey,37.065,30.1957,
306571,Karacoban,71,TR,Turkey,37.8713,32.4846,
307211,Kaman,20,TR,Turkey,37.5811,29.2664,
307864,Kahta,90,TR,Turkey,36.7161,37.115,
308024,Kahramanmaras,79,TR,Turkey,39.6731,33.6136,
308220,Kadirli,07,TR,Turkey,36.5978,30.5606,
308224,Izmir,35,TR,Turkey,38.4262,27.4173,
308464,Isparta,38,TR,Turkey,38.7322,35.4853,
309527,Iskenderun,78,TR,Turkey,37.1811,33.215,
309663,Incirliova,23,TR,Turkey,38.9518,40.0271,
310004,Imamoglu,25,TR,Turkey,39.3436,42.0992,
310641,Idil,40,TR,Turkey,39.3575,33.7239,
310855,Hizan,02,TR,Turkey,37.7855,38.6237,
310859,Hilvan,46,TR,Turkey,37.5847,36.9264,
310892,Hadim,81,TR,Turkey,37.3739,36.0961,
311046,Guroymak,35,TR,Turkey,38.4127,27.1384,
311073,Goksun,33,TR,Turkey,37.7644,30.5522,
311111,Genc,31,TR,Turkey,36.5872,36.1735,
311314,Gemerek,09,TR,Turkey,37.8522,27.7236,
311453,Gediz,81,TR,Turkey,37.2651,35.6572,
311704,Gazipasa,80,TR,Turkey,37.3348,41.8894,
312024,Gaziantep,13,TR,Turkey,38.225,42.4183,
312134,Foca,63,TR,Turkey,37.5869,38.9551,
312899,Fethiye,71,TR,Turkey,36.9878,32.4567,
313331,Ezine,13,TR,Turkey,38.5758,42.0156,
314188,Eskisehir,46,TR,Turkey,38.021,36.4973,
314648,Erzurum,12,TR,Turkey,38.7477,40.5534,
314665,Erzincan,58,TR,Turkey,39.1834,36.0719,
314716,Ermenek,43,TR,Turkey,38.9939,29.3913,
314812,Ergani,07,TR,Turkey,36.2694,32.3179,
314830,Eregli,83,TR,Turkey,37.0594,37.3825,
314903,Erdemli,35,TR,Turkey,38.6703,26.7566,
314967,Ercis,48,TR,Turkey,36.6404,29.1276,
315061,Emirdag,17,TR,Turkey,39.7856,26.3408,
315202,Emet,26,TR,Turkey,39.7767,30.5206,
315368,Elmadag,25,TR,Turkey,39.9086,41.2769,
315373,Eleskirt,24,TR,Turkey,39.7392,39.4902,
315401,Elbistan,78,TR,Turkey,36.6404,32.8918,
315468,Egirdir,21,TR,Turkey,38.269,39.7545,
315498,Edremit,71,TR,Turkey,37.5133,34.0467,
315515,Dursunbey,32,TR,Turkey,36.605,34.3084,
315530,Dortyol,65,TR,Turkey,39.0259,43.3596,
315621,Diyadin,03,TR,Turkey,39.0197,31.15,
315639,Dinar,43,TR,Turkey,39.343,29.2585,
315720,Develi,68,TR,Turkey,39.9208,33.2308,
315758,Denizli,04,TR,Turkey,39.798,42.6757,
315795,Demirci,46,TR,Turkey,38.2059,37.1983,
315905,Dargecit,33,TR,Turkey,37.8746,30.8504,
315985,Darende,10,TR,Turkey,39.5961,27.0244,
316102,Cumra,10,TR,Turkey,39.586,28.6257,
316284,Menderes,31,TR,Turkey,36.8392,36.2303,
316542,Hakkari,04,TR,Turkey,39.5406,43.6713,
316634,Cizre,03,TR,Turkey,38.065,30.1656,
316795,Cine,38,TR,Turkey,38.3906,35.4922,
317109,Ceyhan,20,TR,Turkey,37.7742,29.0875,
317241,Cesme,45,TR,Turkey,39.0461,28.6589,
317587,Cermik,72,TR,Turkey,37.5462,41.7165,
317588,Cay,44,TR,Turkey,38.5458,37.5058,
317844,Caglayancerit,71,TR,Turkey,37.5732,32.7745,
317851,Burhaniye,35,TR,Turkey,38.2496,27.1343,
318137,Burdur,70,TR,Turkey,37.5744,43.7408,
318253,Bucak,80,TR,Turkey,37.3302,42.1848,
318372,Bozuyuk,09,TR,Turkey,37.6127,28.0591,
318675,Bozova,81,TR,Turkey,37.0247,35.8175,
318755,Bor,35,TR,Turkey,38.3261,26.3057,
318766,Bolvadin,21,TR,Turkey,38.1354,39.445,
319104,Bodrum,03,TR,Turkey,38.5917,31.0286,
320004,Bitlis,46,TR,Turkey,37.7452,37.2862,
320369,Bismil,10,TR,Turkey,39.5004,26.9727,
320392,Birecik,15,TR,Turkey,37.7203,30.2908,
320533,Bingol,15,TR,Turkey,37.4592,30.595,
320557,Bigadic,11,TR,Turkey,39.9078,30.0367,
320581,Beysehir,63,TR,Turkey,37.3625,38.5267,
320871,Besni,73,TR,Turkey,37.8906,34.5589,
320879,Bergama,03,TR,Turkey,38.7111,31.0486,
320995,Belen,48,TR,Turkey,37.0383,27.4292,
321025,Belek,13,TR,Turkey,38.4011,42.1078,
321031,Batman,21,TR,Turkey,37.8451,40.6593,
321062,Baskil,63,TR,Turkey,37.0258,37.9784,
321082,Banaz,12,TR,Turkey,38.8847,40.4939,
321136,Bahce,10,TR,Turkey,39.3925,28.1311,
321191,Askale,71,TR,Turkey,37.6773,31.7246,
321337,Antalya,02,TR,Turkey,37.6928,37.8611,
321426,Antakya,35,TR,Turkey,39.1207,27.1805,
321572,Ankara,31,TR,Turkey,36.4887,36.1949,
321580,Anamur,07,TR,Turkey,36.8628,31.0556,
321836,Aliaga,76,TR,Turkey,37.8874,41.1322,
321929,Alasehir,23,TR,Turkey,38.5687,38.8163,
322051,Alanya,64,TR,Turkey,38.7371,29.7519,
322391,Aksehir,81,TR,Turkey,37.1972,36.5766,
323094,Aksaray,25,TR,Turkey,39.9208,40.695,
323777,Akhisar,07,TR,Turkey,36.9081,30.6956,
323779,Akdagmadeni,31,TR,Turkey,36.2066,36.1572,
323786,Akcakale,68,TR,Turkey,39.9199,32.8543,
323828,Ahlat,32,TR,Turkey,36.0751,32.8369,
324106,Afyonkarahisar,35,TR,Turkey,38.7998,26.972,
324172,Afsin,45,TR,Turkey,38.3508,28.5172,
324190,Adilcevaz,07,TR,Turkey,36.5438,31.9998,
324490,Adana,71,TR,Turkey,38.3575,31.4164,
324496,Ziway,75,TR,Turkey,38.3726,34.0254,
324698,Yabelo,45,TR,Turkey,38.9185,27.8401,
324768,Werota,66,TR,Turkey,39.6603,35.8836,
324944,Wenji,63,TR,Turkey,36.7111,38.9475,
325103,Tippi,13,TR,Turkey,38.7489,42.4801,
325303,Shashemene,03,TR,Turkey,38.7567,30.5433,
325304,Shambu,46,TR,Turkey,38.2477,36.914,
325336,Shakiso,13,TR,Turkey,38.7991,42.7316,
325363,Sebeta,81,TR,Turkey,37.0017,35.3289,
325579,Robit,51,ET,Ethiopia,7.93333,38.7167,
326036,Nejo,51,ET,Ethiopia,4.88333,38.0833,
326206,Nazret,46,ET,Ethiopia,11.9167,37.7,
326308,Mojo,51,ET,Ethiopia,8.45,39.2833,
327694,Massawa,54,ET,Ethiopia,7.2,35.45,
328689,Metu,51,ET,Ethiopia,7.2,38.6,
328709,Metahara,51,ET,Ethiopia,9.56667,37.1,
328716,Mendi,51,ET,Ethiopia,5.75,38.9167,
329114,Mek'ele,51,ET,Ethiopia,8.91667,38.6167,
329586,Korem,46,ET,Ethiopia,12.0167,39.6333,
330120,Kibre Mengist,51,ET,Ethiopia,9.5,35.5,
330186,Keren,51,ET,Ethiopia,8.55,39.2667,
330491,Kemise,51,ET,Ethiopia,8.58679,39.1211,
330546,Kombolcha,06,ER,Eritrea,15.6081,39.4745,
330764,Jinka,51,ET,Ethiopia,8.3,35.5833,
330811,Jimma,51,ET,Ethiopia,8.9,39.9167,
331038,Jijiga,51,ET,Ethiopia,9.8,35.1,
331180,Inda Silase,53,ET,Ethiopia,13.4967,39.4753,
332746,Harar,53,ET,Ethiopia,12.5058,39.5228,
333103,Hagere Hiywet,51,ET,Ethiopia,5.88333,38.9833,
333287,Gondar,01,ER,Eritrea,15.7779,38.4511,
333356,Goba,46,ET,Ethiopia,10.7167,39.87,
333373,Waliso,46,ET,Ethiopia,11.0815,39.7434,
333750,Ginir,54,ET,Ethiopia,5.65,36.65,
333772,Gimbi,51,ET,Ethiopia,7.67344,36.8344,
333795,Genet,52,ET,Ethiopia,9.35,42.8,
334227,Gelemso,53,ET,Ethiopia,14.1031,38.2829,
335035,Gebre Guracha,50,ET,Ethiopia,9.31387,42.1181,
335288,Gambela,51,ET,Ethiopia,8.98333,37.85,
336014,Finote Selam,46,ET,Ethiopia,12.6,37.4667,
336350,Fiche,51,ET,Ethiopia,7.01667,39.9833,
336372,Felege Neway,51,ET,Ethiopia,8.53417,37.9651,
336454,Dubti,51,ET,Ethiopia,7.13952,40.7108,
336496,Dodola,51,ET,Ethiopia,9.17031,35.8349,
336931,Dire Dawa,51,ET,Ethiopia,9.06667,38.5,
337010,Dila,51,ET,Ethiopia,8.81667,40.5167,
337152,Dese,51,ET,Ethiopia,9.8,38.4,
337405,Dembi Dolo,49,ET,Ethiopia,8.25,34.5833,
337712,Bishoftu,46,ET,Ethiopia,10.7,37.2667,
337771,Debre Tabor,51,ET,Ethiopia,9.8,38.7333,
337853,Debre Birhan,54,ET,Ethiopia,6.3,36.8833,
338554,Butajira,45,ET,Ethiopia,11.7329,41.082,
338726,Bure,51,ET,Ethiopia,6.98333,39.1833,
338832,Bonga,48,ET,Ethiopia,9.59306,41.8661,
338998,Boditi,54,ET,Ethiopia,6.41667,38.3167,
339219,Bichena,46,ET,Ethiopia,11.1333,39.6333,
339448,Bedesa,51,ET,Ethiopia,8.53333,34.8,
339666,Bedele,51,ET,Ethiopia,8.75225,38.9785,
339686,Bati,46,ET,Ethiopia,11.85,38.0167,
339734,Barentu,46,ET,Ethiopia,9.67954,39.5326,
341297,Bako,54,ET,Ethiopia,8.11667,38.3667,
341397,Bahir Dar,46,ET,Ethiopia,10.7,37.0667,
341742,Hawassa,54,ET,Ethiopia,7.28333,36.2333,
341877,Asosa,54,ET,Ethiopia,6.96667,37.8667,
342190,Asmara,46,ET,Ethiopia,10.45,38.2,
342559,Assab,51,ET,Ethiopia,8.9,40.7833,
342567,Asbe Teferi,51,ET,Ethiopia,8.456,36.353,
342641,Asaita,46,ET,Ethiopia,11.1915,40.0168,
342711,Asasa,04,ER,Eritrea,15.1058,37.5907,
342856,Areka,54,ET,Ethiopia,5.78333,36.5667,
342884,Arba Minch,46,ET,Ethiopia,11.5936,37.3908,
343137,Axum,54,ET,Ethiopia,7.06205,38.4763,
343292,Hagere Maryam,47,ET,Ethiopia,10.0667,34.5333,
343300,Agaro,05,ER,Eritrea,15.338,38.9318,
343386,Mendefera,03,ER,Eritrea,13.0092,42.7394,
343402,Adis Zemen,51,ET,Ethiopia,9.08569,40.8671,
343409,Addis Ababa,45,ET,Ethiopia,11.5684,41.4387,
343413,Adigrat,51,ET,Ethiopia,7.1,39.2,
343593,Addiet Canna,54,ET,Ethiopia,7.06667,37.7,
343663,Abomsa,54,ET,Ethiopia,6.03333,37.55,
344420,Zifta,53,ET,Ethiopia,14.1211,38.7234,
344620,Toukh,51,ET,Ethiopia,5.63418,38.236,
344661,Tanda,51,ET,Ethiopia,7.85,36.65,
344901,Tamiyah,02,ER,Eritrea,14.8872,38.8153,
344923,Talkha,46,ET,Ethiopia,12.1167,37.7833,
344979,Tala,44,ET,Ethiopia,9.02497,38.7469,
345149,Tahta,53,ET,Ethiopia,14.277,39.462,
345353,Sumusta as Sultani,46,ET,Ethiopia,11.2667,37.4833,
345704,Sohag,46,ET,Ethiopia,9.98333,39.9833,
346030,Sidi Salim,05,EG,Egypt,30.7142,31.2442,
347236,Shirbin,12,EG,Egypt,30.3539,31.2007,
347497,Shibin al Qanatir,05,EG,Egypt,30.7885,31.0019,
347542,Shibin al Kawm,04,EG,Egypt,29.4764,30.9612,
347591,Samannud,01,EG,Egypt,31.0539,31.3779,
347612,Samalut,09,EG,Egypt,30.6803,30.9429,
347634,Rosetta,24,EG,Egypt,26.7693,31.5021,
347749,Ras Gharib,18,EG,Egypt,28.9167,30.85,
347796,Quwaysina,24,EG,Egypt,26.5569,31.6948,
348112,Qutur,21,EG,Egypt,31.2713,30.7862,
349114,Kousa,01,EG,Egypt,31.1969,31.5243,
349156,Qina,12,EG,Egypt,30.3127,31.3202,
349158,Qalyub,09,EG,Egypt,30.5526,31.009,
349715,Minyat an Nasr,05,EG,Egypt,30.9616,31.2407,
349717,Minuf,10,EG,Egypt,28.3121,30.7101,
350203,Matay,03,EG,Egypt,31.3995,30.4172,
350207,Mashtul as Suq,02,EG,Egypt,28.3583,33.0783,
350370,Mersa Matruh,09,EG,Egypt,30.5648,31.1578,
350376,Manfalut,05,EG,Egypt,30.9722,30.9561,
350422,Mallawi,23,EG,Egypt,25.9141,32.7636,
350550,Madinat Sittah Uktubar,23,EG,Egypt,26.1642,32.7267,
350789,Kawm Umbu,12,EG,Egypt,30.1792,31.2056,
352344,Kawm Hamadah,01,EG,Egypt,31.1262,31.6431,
352354,Kafr Saqr,09,EG,Egypt,30.4658,30.9316,
352628,Kafr az Zayyat,10,EG,Egypt,28.419,30.7792,
352679,Kafr ash Shaykh,14,EG,Egypt,30.3606,31.3776,
352733,Kafr ad Dawwar,22,EG,Egypt,31.3529,27.2372,
352913,Juhaynah,17,EG,Egypt,27.3104,30.97,
352951,Jirja,10,EG,Egypt,27.7314,30.8417,
353219,Itsa,08,EG,Egypt,29.8167,31.05,
353802,Isna,16,EG,Egypt,24.4767,32.9463,
353828,Idku,03,EG,Egypt,30.761,30.6973,
354105,Idfu,14,EG,Egypt,30.7934,31.6257,
354365,Ibshaway,05,EG,Egypt,30.8248,30.8181,
354502,Halwan,21,EG,Egypt,31.1143,30.9401,
354775,Hihya,03,EG,Egypt,31.1338,30.1297,
354981,Fuwwah,24,EG,Egypt,26.6732,31.4976,
355026,Farshut,24,EG,Egypt,26.3383,31.8916,
355420,Faraskur,04,EG,Egypt,29.2376,30.7894,
355449,Faqus,23,EG,Egypt,25.2934,32.554,
355628,Damietta,03,EG,Egypt,31.3073,30.2981,
355635,Diyarb Najm,16,EG,Egypt,24.9792,32.8772,
355648,Disuq,04,EG,Egypt,29.358,30.6814,
355795,Dishna,11,EG,Egypt,29.8414,31.3008,
355939,Dikirnis,14,EG,Egypt,30.6713,31.588,
356806,Dayrut,21,EG,Egypt,31.2036,30.5491,
356933,Dayr Mawas,23,EG,Egypt,26.0549,32.1633,
356945,Damanhur,20,EG,Egypt,31.3298,31.7151,
356989,Bush,14,EG,Egypt,30.7301,31.8018,
358048,Port Said,20,EG,Egypt,31.4165,31.8133,
358095,Bur Safajah,14,EG,Egypt,30.7544,31.4402,
358108,Bilqas,21,EG,Egypt,31.1326,30.6478,
358115,Bilbays,23,EG,Egypt,26.1247,32.476,
358172,Basyun,01,EG,Egypt,31.089,31.5948,
358269,Bani Suwayf,17,EG,Egypt,27.556,30.8076,
358274,Bani Mazar,10,EG,Egypt,27.6418,30.8466,
358448,Banha,03,EG,Egypt,31.0341,30.4682,
358600,Zagazig,18,EG,Egypt,29.1482,31.1273,
358619,Awsim,19,EG,Egypt,31.2565,32.2841,
358620,At Tall al Kabir,02,EG,Egypt,26.7292,33.9365,
358821,Asyut,01,EG,Egypt,31.2145,31.358,
358840,Aswan,14,EG,Egypt,30.4204,31.5622,
358970,Suez,05,EG,Egypt,30.9398,30.8134,
359173,As Saff,18,EG,Egypt,29.0744,31.0979,
359212,Ashmun,10,EG,Egypt,28.5036,30.8004,
359280,Al Wasitah,12,EG,Egypt,30.4591,31.1786,
359493,Luxor,14,EG,Egypt,30.5877,31.502,
359576,Al Qusiyah,08,EG,Egypt,30.123,31.1357,
359710,Al Qurayn,07,EG,Egypt,30.5445,31.7852,
359783,Al Qanayat,17,EG,Egypt,27.181,31.1837,
359792,Al Qanatir al Khayriyah,16,EG,Egypt,24.0908,32.8994,
359796,Cairo,15,EG,Egypt,29.9737,32.5263,
359900,Al Minya,08,EG,Egypt,29.5647,31.2811,
360048,Al Matariyah,09,EG,Egypt,30.2986,30.9764,
360464,Al Manzilah,04,EG,Egypt,29.3378,31.2056,
360502,Al Mansurah,28,EG,Egypt,25.6989,32.6421,
360526,Al Manshah,17,EG,Egypt,27.4402,30.8184,
360531,Al Mahallah al Kubra,02,EG,Egypt,26.1043,34.2779,
360542,Al Kharijah,14,EG,Egypt,30.6162,31.7351,
360612,Al Khankah,14,EG,Egypt,30.6188,31.461,
360615,Giza,12,EG,Egypt,30.1933,31.137,
360630,Al Jamaliyah,11,EG,Egypt,30.0626,31.2497,
360686,Ismailia,10,EG,Egypt,28.1099,30.7503,
360716,Alexandria,01,EG,Egypt,31.1829,32.0311,
360754,Al Ibrahimiyah,01,EG,Egypt,31.1581,31.937,
360761,Al Hawamidiyah,01,EG,Egypt,31.0364,31.3807,
360773,Al Hamul,24,EG,Egypt,26.4769,31.8035,
360829,Hurghada,05,EG,Egypt,30.9706,31.1669,
360923,Al Fayyum,13,EG,Egypt,25.4514,30.5464,
360928,Al Fashn,12,EG,Egypt,30.2104,31.3681,
360995,Al Bawiti,08,EG,Egypt,30.0081,31.2109,
361029,Al Balyana,01,EG,Egypt,31.1809,31.8652,
361055,Al Bajur,07,EG,Egypt,30.6043,32.2723,
361058,Al Badari,06,EG,Egypt,31.2156,29.9553,
361103,Arish,14,EG,Egypt,30.7188,31.563,
361179,Akhmim,08,EG,Egypt,29.9,31.25,
361213,Aja,21,EG,Egypt,31.3115,31.1477,
361291,Ad Dilinjat,02,EG,Egypt,27.2574,33.8129,
361320,Abu Tij,04,EG,Egypt,29.3099,30.8418,
361329,Abu Qurqas,18,EG,Egypt,28.8243,30.8995,
361394,Abu Kabir,08,EG,Egypt,28.3492,28.8659,
361435,Abu al Matamir,24,EG,Egypt,26.2357,32.0035,
361457,Abnub,09,EG,Egypt,30.4303,31.0368,
361478,Sarande,17,EG,Egypt,26.9926,31.4155,
361546,Zalingei,27,EG,Egypt,31.1316,33.7984,
361661,Wad Medani,24,EG,Egypt,26.5622,31.745,
361702,Umm Ruwaba,01,EG,Egypt,30.9416,31.2904,
361827,Omdurman,03,EG,Egypt,30.8279,30.5363,
362004,Tokar,17,EG,Egypt,27.0441,31.319,
362277,Tandalti,10,EG,Egypt,27.9312,30.8384,
362485,Singa,14,EG,Egypt,30.7251,31.6715,
362882,Shendi,03,EG,Egypt,30.9102,30.1744,
362973,Sawakin,17,EG,Egypt,27.2696,31.1511,
363243,Sinnar,51,AL,Albania,39.8756,20.0053,
363533,Rabak,61,SD,Sudan,12.9092,23.4706,
364103,Maiurno,38,SD,Sudan,14.4012,33.5199,
364706,Kosti,56,SD,Sudan,12.9061,31.2158,
365137,Kuraymah,29,SD,Sudan,15.6445,32.4777,
366323,Kinana,36,SD,Sudan,18.4254,37.729,
366426,Kassala,41,SD,Sudan,13.0167,31.8667,
366847,Kadugli,58,SD,Sudan,13.1483,33.9312,
367308,Doka,53,SD,Sudan,16.6915,33.4341,
367544,Dilling,36,SD,Sudan,19.1059,37.3321,
367644,Port Sudan,58,SD,Sudan,13.5691,33.5672,
368277,Berber,41,SD,Sudan,13.1809,32.74,
370838,Barah,58,SD,Sudan,13.4167,33.6667,
371760,Atbara,41,SD,Sudan,13.1629,32.6635,
371870,As Suki,43,SD,Sudan,18.55,31.85,
372386,Ar Ruseris,58,SD,Sudan,14.0361,33.1712,
372753,Ar Rahad,52,SD,Sudan,15.451,36.4,
373141,An Nuhud,50,SD,Sudan,11.0111,29.7183,
376332,El Obeid,39,SD,Sudan,13.5167,35.7667,
376450,Al Qitena,50,SD,Sudan,12.05,29.65,
377039,Al Qadarif,36,SD,Sudan,19.6175,37.2164,
377690,Al Mijlad,53,SD,Sudan,18.0216,33.983,
377724,Al Manaqil,56,SD,Sudan,13.7,30.3667,
378231,Khartoum,53,SD,Sudan,17.7022,33.9864,
378271,Geneina,58,SD,Sudan,13.3167,33.8833,
378459,Al Hilaliyya,42,SD,Sudan,11.8659,34.3869,
378493,Al Hawatah,56,SD,Sudan,12.7167,30.65,
378699,Al Hasaheisa,62,SD,Sudan,12.7,28.4333,
379003,El Fasher,56,SD,Sudan,13.1842,30.2167,
379014,El Bauga,41,SD,Sudan,14.8648,32.3668,
379062,Ad Douiem,39,SD,Sudan,14.0349,35.3834,
379102,El Daein,62,SD,Sudan,11.0333,27.7333,
379149,Ad Dindar,38,SD,Sudan,14.2459,32.9891,
379252,Ed Damer,29,SD,Sudan,15.5518,32.5324,
379303,Ad-Damazin,47,SD,Sudan,13.4526,22.4473,
379406,Abu Zabad,38,SD,Sudan,14.9398,33.234,
379416,Abu Jibeha,39,SD,Sudan,13.4167,34.6333,
379427,Siaya,38,SD,Sudan,14.7526,33.2984,
379555,Shibli,55,SD,Sudan,13.6279,25.3494,
379630,Rumat Heib,53,SD,Sudan,18.262,33.9081,
380129,Sallama,41,SD,Sudan,14.0012,32.3116,
380148,Kefar Weradim,60,SD,Sudan,11.4619,26.1258,
380151,Al Basrah al Qadimah,58,SD,Sudan,13.2,34.1667,
380173,Rodos,53,SD,Sudan,17.599,33.972,
380174,Laascaanood,42,SD,Sudan,11.7891,34.3592,
380348,Pasargad,62,SD,Sudan,12.35,29.25,
380757,Eqbaliyeh,50,SD,Sudan,11.4562,31.2285,
383388,Ash Shafa,46,KE,Kenya,0.06116,34.2882,
386042,Yanqul,3,IL,Israel,32.6946,35.3925,
386194,Aden,3,IL,Israel,32.778,35.3057,
386253,Shahreza,3,IL,Israel,32.8944,35.3693,
386445,Rehnan,3,IL,Israel,32.9939,35.2779,
388349,Qahderijan,02,IQ,Iraq,30.5032,47.8151,
400666,Najafabad,ESYE42,GR,Piraios Nomos,36.4356,28.222,
400769,Khomeyni Shahr,22,SO,Somalia,8.47738,47.3597,
401202,Kelishad va Sudarjan,07,IR,Iran,30.2019,53.18,
406993,Falavarjan,26,IR,Iran,35.3022,51.5358,
410096,Isfahan,14,SA,Saudi Arabia,21.0721,40.3119,
411849,Dowlatabad,09,OM,Oman,23.5905,56.5501,
415189,Dorcheh Piaz,02,YE,Aden Municipality,12.7794,45.0367,
417594,Az Zarqa,28,IR,Iran,32.0339,51.8794,
418521,Makamba,28,IR,Iran,32.6833,51.6016,
418571,Bururi,28,IR,Iran,32.5767,51.455,
418606,Bujumbura,28,IR,Iran,32.6344,51.3668,
418710,Muramvya,28,IR,Iran,32.6856,51.5361,
418723,Gitega,28,IR,Iran,32.5512,51.5276,
418851,Ruyigi,28,IR,Iran,32.5553,51.5097,
418863,Ngozi,28,IR,Iran,32.6525,51.6746,
418868,Kayanza,28,IR,Iran,32.7998,51.6955,
418896,Muyinga,28,IR,Iran,32.6153,51.5556,
419435,Rutana,20,EG,Egypt,31.2086,31.6353,
422232,Denizciler,17,BI,Burundi,-4.1348,29.804,
423328,Batikent,10,BI,Burundi,-3.94877,29.6244,
425378,Dalaman,24,BI,Burundi,-3.3822,29.3644,
425551,Sinjar,22,BI,Burundi,-3.2682,29.6079,
426272,Udomlya,13,BI,Burundi,-3.4264,29.9308,
426700,Valmiera,21,BI,Burundi,-3.47639,30.2486,
430569,Ventspils,19,BI,Burundi,-2.9075,29.8306,
430952,Tukums,15,BI,Burundi,-2.9221,29.6293,
431748,Salaspils,18,BI,Burundi,-2.8451,30.3414,
433635,Riga,20,BI,Burundi,-3.9279,29.992,
438400,Rezekne,31,TR,Turkey,36.6411,36.2142,
442301,Ogre,68,TR,Turkey,39.9683,32.7308,
447273,Liepaja,48,TR,Turkey,36.7659,28.8028,
448149,Jurmala,15,IQ,Iraq,36.3209,41.8766,
452949,Jelgava,77,RU,Russia,57.8794,34.9925,
453754,Jekabpils,31,LV,Dobeles Rajons,57.5411,25.4275,
454310,Daugavpils,32,LV,Dobeles Rajons,57.3899,21.5729,
454768,Cesis,29,LV,Dobeles Rajons,56.9669,23.1553,
455898,Sosnovka,C3,LV,Dobeles Rajons,56.8601,24.3654,
456172,Sasovo,25,LV,Dobeles Rajons,56.946,24.1059,
456202,Zyuzino,23,LV,Dobeles Rajons,56.5,27.3167,
457065,Zyablikovo,21,LV,Dobeles Rajons,56.8162,24.614,
457954,Zverevo,16,LV,Dobeles Rajons,56.5167,21.0167,
459201,Zvenigorod,13,LV,Dobeles Rajons,56.968,23.7704,
459279,Zlatoust,11,LV,Dobeles Rajons,56.65,23.7128,
459283,Zimovniki,10,LV,Dobeles Rajons,56.499,25.8573,
460413,Zhulebino,07,LV,Dobeles Rajons,55.8833,26.5333,
460570,Zhukovskiy,05,LV,Dobeles Rajons,57.3119,25.2746,
461698,Zhukovka,66,RU,Russia,60.0167,30.35,
461699,Zhirnovsk,62,RU,Russia,54.3537,41.9199,
461740,Zhigulevsk,48,RU,Russia,55.6561,37.5685,
461835,Zherdevka,48,RU,Russia,55.6167,37.7667,
461910,Zheleznovodsk,61,RU,Russia,48.0211,40.1228,
461920,Zheleznogorsk,47,RU,Russia,55.734,36.8592,
462444,Zheleznodorozhnyy,13,RU,Russia,55.1711,59.6508,
462522,Zernograd,61,RU,Russia,47.1474,42.4721,
462745,Zelenokumsk,48,RU,Russia,55.7,37.85,
462755,Zelenograd,47,RU,Russia,55.5953,38.1203,
462822,Zelenodolsk,10,RU,Russia,53.534,33.728,
462984,Zelenchukskaya,84,RU,Russia,50.9845,44.7735,
463082,Zarechnyy,65,RU,Russia,53.3997,49.4953,
463217,Zaraysk,72,RU,Russia,51.8486,41.4606,
463340,Zapolyarnyy,70,RU,Russia,44.1394,43.0197,
463343,Zainsk,41,RU,Russia,52.331,35.3711,
463355,Yoshkar-Ola,47,RU,Russia,55.744,38.0168,
463637,Yeysk,61,RU,Russia,46.8452,40.3083,
463824,Yessentukskaya,70,RU,Russia,44.4069,43.8806,
463829,Yessentuki,48,RU,Russia,55.9825,37.1814,
463835,Yershov,73,RU,Russia,55.8438,48.5178,
463885,Yemva,27,RU,Russia,43.858,41.5894,
464625,Yelizavetinskaya,57,RU,Russia,53.2036,45.1923,
464687,Yelets,47,RU,Russia,54.7605,38.8784,
464790,Yelabuga,49,RU,Russia,69.4154,30.8136,
465543,Yegorlykskaya,73,RU,Russia,55.3195,52.0694,
466806,Yefremov,45,RU,Russia,56.6388,47.8908,
466885,Yasnyy,38,RU,Russia,46.7055,38.2739,
466989,Yasnogorsk,70,RU,Russia,44.0328,42.8813,
466990,Yasenevo,70,RU,Russia,44.0444,42.8606,
467120,Yartsevo,67,RU,Russia,51.3513,48.2766,
467525,Yaroslavl,34,RU,Russia,62.59,50.8594,
467854,Yaransk,38,RU,Russia,45.0462,38.7949,
467978,Yanaul,43,RU,Russia,52.6237,38.5017,
468082,Yagry,73,RU,Russia,55.7613,52.0649,
468307,Yablonovskiy,61,RU,Russia,46.5656,40.6562,
468390,Vyshniy Volochek,76,RU,Russia,53.1481,38.0992,
468657,Vyselki,55,RU,Russia,51.0333,59.8742,
468671,Vyksa,76,RU,Russia,54.4808,37.6985,
468809,Vykhino-Zhulebino,48,RU,Russia,55.6069,37.5199,
468866,Vyborg,69,RU,Russia,55.0667,32.6964,
468902,Vyazniki,88,RU,Russia,57.6299,39.8737,
469005,Vyatskiye Polyany,33,RU,Russia,57.3033,47.8861,
469178,Vsevolozhsk,08,RU,Russia,56.2751,54.9338,
469707,Votkinsk,06,RU,Russia,64.5942,39.8103,
469844,Vostryakovo,01,RU,Russia,44.989,38.9432,
470252,Voskresensk,77,RU,Russia,57.5913,34.5645,
470338,Voronezh,38,RU,Russia,45.5813,39.6641,
470444,Volzhskiy,51,RU,Russia,55.3175,42.1744,
470451,Volzhsk,48,RU,Russia,55.702,37.8118,
470546,Volokolamsk,42,RU,Russia,60.7076,28.7528,
470666,Vologda,83,RU,Russia,56.2406,42.1556,
470734,Volkhov,33,RU,Russia,56.226,51.0656,
471101,Nagornyy,42,RU,Russia,60.0151,30.6731,
471430,Volgorechensk,80,RU,Russia,57.0486,53.9872,
471456,Volgograd,47,RU,Russia,55.6667,37.45,
471457,Volgodonsk,47,RU,Russia,55.3993,37.8083,
471656,Novovladykino,47,RU,Russia,55.3173,38.6526,
472045,Vladimir,86,RU,Russia,51.672,39.1843,
472231,Vladikavkaz,84,RU,Russia,48.7858,44.7797,
472234,Vidnoye,45,RU,Russia,55.8664,48.3594,
472433,Vichuga,47,RU,Russia,56.0336,35.9694,
472459,Veshnyaki,85,RU,Russia,59.2239,39.884,
472722,Vereshchagino,42,RU,Russia,59.9258,32.3382,
472732,Venev,48,RU,Russia,55.65,37.6167,
472750,Velikiy Ustyug,37,RU,Russia,57.4393,41.1555,
472757,Velikiye Luki,84,RU,Russia,48.7194,44.5018,
472761,Vatutino,61,RU,Russia,47.5136,42.1514,
473127,Valuyki,48,RU,Russia,55.85,37.5833,
473247,Valday,83,RU,Russia,56.1366,40.3966,
473249,Vagonoremont,68,RU,Russia,43.0367,44.6678,
473778,Uzlovaya,47,RU,Russia,55.5524,37.7097,
473788,Uvarovo,21,RU,Russia,57.2128,41.9301,
473972,Uva,48,RU,Russia,55.7239,37.8195,
475777,Uryupinsk,90,RU,Russia,58.0789,54.6557,
475881,Urus-Martan,76,RU,Russia,54.3553,38.2684,
476062,Uritsk,85,RU,Russia,60.7619,46.3135,
476077,Unecha,60,RU,Russia,56.34,30.5452,
476368,Ulyanovsk,48,RU,Russia,55.8844,37.6906,
477192,Ukhta,09,RU,Russia,50.2035,38.1067,
477301,Uglich,52,RU,Russia,57.9747,33.2525,
477377,Ufa,48,RU,Russia,55.9,37.55,
477494,Uchkeken,76,RU,Russia,53.9818,38.1712,
477626,Uchaly,72,RU,Russia,51.9849,42.2615,
477656,Tyrnyauz,80,RU,Russia,56.9908,52.1852,
478544,Tver,84,RU,Russia,50.8047,42.0138,
478581,Tuymazy,12,RU,Russia,43.1305,45.5379,
478724,Tutayev,66,RU,Russia,59.8389,30.1753,
479028,Tula,10,RU,Russia,52.8459,32.6739,
479123,Tuchkovo,81,RU,Russia,54.3282,48.3866,
479411,Tuapse,34,RU,Russia,63.5671,53.6835,
479532,Tsimlyansk,88,RU,Russia,57.5275,38.3317,
479561,Trubchevsk,08,RU,Russia,54.7431,55.9678,
479687,Troparevo,27,RU,Russia,43.9378,42.5117,
479703,Troitskaya,08,RU,Russia,54.3581,59.4361,
479704,Troitsk,08,RU,Russia,54.2996,59.4521,
479933,Tosno,22,RU,Russia,43.3828,42.9183,
480060,Torzhok,77,RU,Russia,56.8584,35.9006,
480089,Tomilino,08,RU,Russia,54.6067,53.7097,
480122,Timashevsk,88,RU,Russia,57.8853,39.5406,
480562,Tikhvin,76,RU,Russia,54.1961,37.6182,
480685,Tikhoretsk,47,RU,Russia,55.6011,36.4681,
480716,Teykovo,38,RU,Russia,44.1053,39.0802,
480876,Terek,61,RU,Russia,47.6461,42.1019,
481350,Tyoply Stan,10,RU,Russia,52.5798,33.7644,
481453,Temryuk,48,RU,Russia,55.6562,37.485,
481605,Tbilisskaya,19,RU,Russia,43.3066,44.984,
481608,Tambov,48,RU,Russia,55.485,37.3074,
481964,Taganrog,42,RU,Russia,59.54,30.8775,
481985,Taganskiy,77,RU,Russia,57.0436,34.9622,
482260,Syktyvkar,47,RU,Russia,55.6562,37.9471,
482965,Svobody,38,RU,Russia,45.6169,38.9453,
483019,Sviblovo,42,RU,Russia,59.6451,33.5294,
483029,Svetogorsk,38,RU,Russia,45.8547,40.1253,
483137,Svetlyy,21,RU,Russia,56.858,40.5369,
483495,Svetlograd,22,RU,Russia,43.4833,44.1361,
483551,Suvorovskaya,48,RU,Russia,55.6205,37.4934,
483661,Suvorov,38,RU,Russia,45.2705,37.3872,
483883,Surovikino,38,RU,Russia,45.3633,40.19,
484646,Surkhakhi,72,RU,Russia,52.7317,41.4433,
484907,Sukhinichi,61,RU,Russia,47.2362,38.8969,
484912,Stupino,48,RU,Russia,55.7333,37.6667,
485239,Strunino,34,RU,Russia,61.6764,50.8099,
485432,Strogino,70,RU,Russia,44.0256,43.0503,
485630,Sterlitamak,48,RU,Russia,55.85,37.6333,
485639,Staryy Oskol,42,RU,Russia,61.1121,28.8632,
485660,Staroshcherbinovskaya,23,RU,Russia,54.675,20.1347,
485698,Starominskaya,70,RU,Russia,45.3353,42.8547,
485871,Starodub,70,RU,Russia,44.1901,42.6595,
485888,Staraya Russa,76,RU,Russia,54.1223,36.4966,
486071,Staraya Kupavna,84,RU,Russia,48.6073,42.8462,
486110,Staraya Derevnya,19,RU,Russia,43.1875,44.9019,
486665,Sovetsk,25,RU,Russia,54.0999,35.3425,
486968,Sosnovyy Bor,47,RU,Russia,54.9008,38.0708,
487095,Sosnovaya Polyana,83,RU,Russia,56.3733,38.5832,
487150,Sosnogorsk,48,RU,Russia,55.8184,37.4122,
487495,Sortavala,08,RU,Russia,53.6246,55.9501,
487928,Sorochinsk,09,RU,Russia,51.2967,37.8417,
488635,Solntsevo,38,RU,Russia,46.6311,38.6742,
488742,Solnechnogorsk,38,RU,Russia,46.53,39.0497,
488852,Solikamsk,10,RU,Russia,52.5844,32.7633,
489088,Sokol,52,RU,Russia,57.9944,31.3608,
489162,Sofrino,47,RU,Russia,55.808,38.1805,
489226,Sochi,66,RU,Russia,59.9883,30.243,
490067,Sobinka,33,RU,Russia,57.5848,48.9584,
490068,Smolensk,23,RU,Russia,55.0839,21.8785,
490172,Slobodskoy,42,RU,Russia,59.8996,29.0857,
490377,Slobodka,66,RU,Russia,59.8353,30.1467,
490391,Slavyansk-na-Kubani,34,RU,Russia,63.6023,53.8817,
490466,Slantsy,28,RU,Russia,61.7123,30.7095,
490554,Skopin,55,RU,Russia,52.4338,53.1583,
490971,Skhodnya,48,RU,Russia,55.6371,37.3811,
490996,Sim,47,RU,Russia,56.1833,36.9833,
491023,Sibay,90,RU,Russia,59.6316,56.7685,
491280,Shuya,48,RU,Russia,55.8,37.5167,
491281,Shushary,85,RU,Russia,59.4617,40.1206,
491352,Shumerlya,47,RU,Russia,56.15,37.9333,
491422,Mikhaylovsk,38,RU,Russia,43.5992,39.7257,
491480,Shilovo,83,RU,Russia,55.9855,40.0111,
491687,Sheksna,69,RU,Russia,54.7818,32.0401,
491882,Shebekino,33,RU,Russia,58.7322,50.1772,
491895,Shchukino,48,RU,Russia,55.8667,37.5833,
492094,Shchigry,38,RU,Russia,45.2558,38.1256,
492162,Shcherbinka,42,RU,Russia,59.1182,28.0914,
492376,Shchelkovo,62,RU,Russia,53.8249,39.5505,
492448,Shchekino,47,RU,Russia,55.9481,37.2978,
492944,Shatura,13,RU,Russia,54.993,57.6982,
493160,Shali,08,RU,Russia,52.7181,58.6658,
493231,Shakhty,21,RU,Russia,56.8487,41.3883,
493316,Severskaya,66,RU,Russia,59.8092,30.3817,
493463,Severo-Zadonsk,16,RU,Russia,55.5005,46.4129,
493702,Severomorsk,70,RU,Russia,45.1283,42.0256,
494427,Severodvinsk,62,RU,Russia,54.3204,40.874,
495062,Severnyy,85,RU,Russia,59.21,38.5107,
495112,Sestroretsk,09,RU,Russia,50.4097,36.9136,
495136,Sertolovo,48,RU,Russia,55.8,37.45,
495206,Serpukhov,41,RU,Russia,51.8755,36.9043,
495260,Sergiyev Posad,48,RU,Russia,55.4997,37.5597,
495344,Sergach,47,RU,Russia,55.925,37.9722,
495394,Serdobsk,76,RU,Russia,54.0051,37.5219,
495518,Semiluki,47,RU,Russia,55.5725,39.5368,
495957,Semikarakorsk,12,RU,Russia,43.1481,45.9019,
496015,Semenovskoye,61,RU,Russia,47.7091,40.2144,
496267,Semenov,38,RU,Russia,44.8541,38.6769,
496269,Segezha,76,RU,Russia,54.0348,38.4017,
496278,Satka,49,RU,Russia,69.0689,33.4162,
496285,Sarov,06,RU,Russia,64.5635,39.8302,
496348,Saratov,48,RU,Russia,55.9358,37.5489,
496478,Sarapul,66,RU,Russia,60.098,29.9638,
496519,Saransk,42,RU,Russia,60.1444,30.2017,
496527,Saraktash,47,RU,Russia,54.9158,37.4111,
496638,Saint Petersburg,47,RU,Russia,56.3,38.1333,
496802,Samara,51,RU,Russia,55.5308,45.4661,
496934,Salavat,57,RU,Russia,52.4586,44.2169,
497206,Safonovo,86,RU,Russia,51.6852,39.0279,
497218,Rzhev,61,RU,Russia,47.5194,40.8112,
497271,Rybnoye,47,RU,Russia,55.6833,37.55,
497450,Rybinsk,51,RU,Russia,56.7875,44.493,
497927,Rybatskoye,28,RU,Russia,63.7415,34.3222,
498418,Ryazhsk,13,RU,Russia,55.0425,59.04,
498525,Ruzayevka,51,RU,Russia,54.9358,43.3235,
498677,Rublevo,67,RU,Russia,51.5406,46.0086,
498687,Rtishchevo,80,RU,Russia,56.4763,53.7978,
498698,Rostov-na-Donu,46,RU,Russia,54.1838,45.1749,
498708,Rostov,55,RU,Russia,51.7877,56.3609,
498817,Rostokino,66,RU,Russia,59.9386,30.3141,
499099,Rodniki,65,RU,Russia,53.2001,50.15,
499292,Revda,08,RU,Russia,53.3837,55.9077,
499452,Reutov,69,RU,Russia,55.15,33.2167,
499717,Razumnoye,77,RU,Russia,56.2624,34.3282,
499975,Rayevskiy,62,RU,Russia,54.7277,39.5173,
500004,Rasskazovo,88,RU,Russia,58.0446,38.8426,
500019,Ramenskoye,42,RU,Russia,59.8393,30.4987,
500047,Ramenki,62,RU,Russia,53.7038,40.1109,
500299,Pyatigorsk,46,RU,Russia,54.0639,44.9509,
500843,Pushkin,48,RU,Russia,55.7851,37.3548,
500886,Pushchino,67,RU,Russia,52.2604,43.7874,
501175,Pugachev,61,RU,Russia,47.2313,39.7233,
501183,Pskov,88,RU,Russia,57.1914,39.4139,
501187,Protvino,48,RU,Russia,55.8333,37.6667,
501730,Proletarsk,21,RU,Russia,57.1051,41.7305,
502011,Prokhladnyy,71,RU,Russia,56.801,59.9303,
502018,Priyutovo,47,RU,Russia,55.7611,37.8575,
502400,Privolzhskiy,09,RU,Russia,50.5344,36.6846,
502540,Privolzhsk,08,RU,Russia,54.0658,54.9468,
502793,Priozersk,72,RU,Russia,52.656,41.8846,
502965,Primorsko-Akhtarsk,47,RU,Russia,55.5669,38.2303,
502971,Pridonskoy,48,RU,Russia,55.7,37.5,
503550,Povorino,70,RU,Russia,44.0486,43.0594,
503977,Kotlovka,47,RU,Russia,56.0172,37.8667,
504003,Annino,66,RU,Russia,59.7142,30.3964,
504042,Polyarnyye Zori,47,RU,Russia,54.8337,37.6114,
504250,Polyarnyy,67,RU,Russia,52.0133,48.8025,
504341,Pokrovskoye-Streshnevo,60,RU,Russia,57.8136,28.3496,
504576,Pokrov,47,RU,Russia,54.8682,37.2158,
504831,Pokhvistnevo,61,RU,Russia,46.7029,41.7272,
504935,Podolsk,22,RU,Russia,43.7574,44.0297,
505014,Pochep,08,RU,Russia,53.9,53.9333,
505057,Ryazanskiy,67,RU,Russia,51.4094,46.0483,
505060,Plavsk,21,RU,Russia,57.387,41.2867,
505230,Pikalevo,42,RU,Russia,61.0393,30.1291,
505259,Petushki,38,RU,Russia,46.0497,38.1747,
505421,Petrozavodsk,86,RU,Russia,51.6841,39.0727,
505806,Petrovskaya,86,RU,Russia,51.1945,42.2457,
506043,Petrovsk,48,RU,Russia,55.6593,37.604,
506117,Petrodvorets,48,RU,Russia,55.5833,37.6,
506762,Peterhof,49,RU,Russia,67.3661,32.4981,
506763,Pestovo,49,RU,Russia,69.1989,33.4478,
507338,Perm,48,RU,Russia,55.808,37.4581,
507599,Novo-Peredelkino,83,RU,Russia,55.918,39.1724,
507624,Penza,65,RU,Russia,53.6524,52.1274,
508101,Pechora,47,RU,Russia,55.4242,37.5547,
508656,Pavlovskiy Posad,10,RU,Russia,52.9336,33.4464,
508751,Pavlovskaya,48,RU,Russia,55.7333,37.7667,
509052,Pavlovsk,76,RU,Russia,53.7094,37.2919,
509598,Pashkovskiy,42,RU,Russia,59.5183,34.1664,
509697,Pallasovka,83,RU,Russia,55.9264,39.461,
509820,Ozery,28,RU,Russia,61.7849,34.3469,
509981,Ozerki,47,RU,Russia,55.55,37.7833,
509987,Otradnyy,67,RU,Russia,52.3064,45.3917,
510225,Otradnoye,66,RU,Russia,59.8956,29.8015,
510291,Otradnaya,66,RU,Russia,59.8833,29.9,
510364,Ostrov,52,RU,Russia,58.5938,35.8024,
511196,Ostrogozhsk,90,RU,Russia,58.0105,56.2502,
511510,Ostashkov,48,RU,Russia,55.6453,37.3358,
511565,Ostankinskiy,57,RU,Russia,53.2007,45.0046,
511794,Osa,34,RU,Russia,65.1472,57.2244,
512023,Orsk,47,RU,Russia,55.7819,38.6502,
512051,Orlovskiy,38,RU,Russia,46.1377,39.7832,
512052,Orenburg,66,RU,Russia,59.6833,30.4347,
512053,Orel,86,RU,Russia,50.4578,40.1081,
512382,Orekhovo-Zuyevo,38,RU,Russia,45.0237,39.1044,
513042,Orekhovo-Borisovo Severnoye,84,RU,Russia,50.05,46.8833,
513378,Sunzha,47,RU,Russia,54.86,38.5506,
513471,Onega,66,RU,Russia,60.0395,30.3113,
513883,Omutninsk,65,RU,Russia,53.376,51.3452,
513896,Olenegorsk,48,RU,Russia,55.8667,37.6,
513898,Tsotsin-Yurt,42,RU,Russia,59.7775,30.8181,
513911,Odintsovo,38,RU,Russia,44.3933,41.5206,
514171,Ocher,60,RU,Russia,57.3439,28.3537,
514198,Ochakovo-Matveyevskoye,86,RU,Russia,50.8664,39.0756,
514259,Obninsk,77,RU,Russia,57.1467,33.1075,
514284,Nytva,48,RU,Russia,55.8296,37.616,
514706,Nyandoma,90,RU,Russia,57.283,55.4589,
514734,Nurlat,55,RU,Russia,51.2049,58.5668,
514796,Novyy Oskol,61,RU,Russia,46.8714,42.0592,
515003,Novyye Cheremushki,55,RU,Russia,51.7727,55.0988,
515012,Novozybkov,56,RU,Russia,52.9651,36.0785,
515024,Novovoronezh,47,RU,Russia,55.8067,38.9618,
515027,Novouzensk,48,RU,Russia,55.6167,37.6833,
515083,Novotroitsk,19,RU,Russia,43.3195,45.0491,
515246,Novotitarovskaya,06,RU,Russia,63.9069,38.1111,
515267,Novoshakhtinsk,33,RU,Russia,58.67,52.1932,
515698,Novorossiysk,49,RU,Russia,68.1432,33.2529,
515804,Novopokrovskaya,12,RU,Russia,43.2421,46.0001,
516215,Novopavlovsk,47,RU,Russia,55.678,37.2777,
516256,Novomoskovsk,90,RU,Russia,57.8904,54.7202,
516264,Novomichurinsk,48,RU,Russia,55.6843,37.4465,
516436,Novokuybyshevsk,25,RU,Russia,55.0968,36.6101,
516576,Novokubansk,90,RU,Russia,57.9437,55.3396,
516647,Novokhovrino,06,RU,Russia,61.6656,40.2013,
516716,Novogireyevo,73,RU,Russia,54.4277,50.8051,
516931,Novodvinsk,09,RU,Russia,50.7633,37.864,
517161,Novocherkassk,48,RU,Russia,55.7,37.5833,
517269,Novocheboksarsk,10,RU,Russia,52.5396,31.9275,
517716,Novoanninskiy,86,RU,Russia,51.3072,39.2173,
517739,Novoaleksandrovsk,67,RU,Russia,50.4592,48.1431,
517836,Velikiy Novgorod,55,RU,Russia,51.203,58.3266,
517842,Novaya Derevnya,38,RU,Russia,45.2376,38.9806,
517963,Noginsk,61,RU,Russia,47.7604,39.9333,
518255,Nizhnyaya Tura,38,RU,Russia,44.7244,37.7675,
518325,Nizhniy Tagil,38,RU,Russia,45.9514,40.7006,
518383,Nizhniy Novgorod,70,RU,Russia,43.9622,43.6342,
518557,Nizhniy Lomov,76,RU,Russia,54.0105,38.2846,
518602,Nizhnekamsk,62,RU,Russia,54.0384,39.7479,
518659,Nikulino,65,RU,Russia,53.0959,49.9462,
518682,Nikolayevsk,38,RU,Russia,45.117,41.0267,
518740,Nikel,48,RU,Russia,55.8667,37.5,
518879,Nezlobnaya,48,RU,Russia,55.7538,37.8189,
518909,Nevinnomyssk,06,RU,Russia,64.4165,40.8122,
518970,Nesterovskaya,61,RU,Russia,47.4202,40.0913,
518976,Nerekhta,16,RU,Russia,56.111,47.4776,
519062,Nelidovo,84,RU,Russia,50.5287,42.6747,
519106,Neftekamsk,70,RU,Russia,45.4948,41.2207,
519336,Neftegorsk,52,RU,Russia,58.5213,31.271,
519711,Navashino,66,RU,Russia,59.9875,30.2868,
520068,Nar'yan-Mar,47,RU,Russia,55.8665,38.4438,
520204,Nartkala,71,RU,Russia,58.6293,59.8118,
520494,Naro-Fominsk,71,RU,Russia,57.9194,59.965,
520555,Nakhabino,51,RU,Russia,56.3287,44.002,
520574,Naberezhnyye Chelny,57,RU,Russia,53.5304,43.6766,
521118,Mytishchi,73,RU,Russia,55.6366,51.8245,
521416,Murom,48,RU,Russia,55.6694,37.466,
521874,Murmansk,84,RU,Russia,50.0282,45.4595,
522260,Mtsensk,49,RU,Russia,69.4128,30.222,
522301,Mozhga,70,RU,Russia,44.1181,43.4028,
522377,Mozhaysk,70,RU,Russia,44.6333,41.9444,
522470,Mozdok,19,RU,Russia,43.2386,45.0503,
522594,Mostovskoy,37,RU,Russia,57.4588,40.5747,
522775,Moscow,77,RU,Russia,56.2211,32.7774,
522942,Morshansk,08,RU,Russia,56.092,54.2661,
522945,Morozovsk,65,RU,Russia,52.802,51.166,
523198,Monino,51,RU,Russia,55.5441,42.1968,
523392,Monchegorsk,50,RU,Russia,67.6387,53.0037,
523405,Mirnyy,22,RU,Russia,43.5575,43.8508,
523426,Mineralnye Vody,47,RU,Russia,55.3875,36.7331,
523553,Millerovo,47,RU,Russia,55.8485,37.1779,
523750,Mikhaylovka,73,RU,Russia,55.7254,52.4112,
523812,Mikhalkovo,47,RU,Russia,55.9116,37.7308,
524294,Michurinsk,83,RU,Russia,55.575,42.0426,
524305,Metallostroy,49,RU,Russia,68.9792,33.0925,
524640,Menzelinsk,56,RU,Russia,53.2766,36.5733,
524699,Mendeleyevsk,80,RU,Russia,56.4447,52.2276,
524712,Meleuz,47,RU,Russia,55.5019,36.0272,
524736,Melenki,68,RU,Russia,43.7436,44.6518,
524809,Medvedovskaya,38,RU,Russia,44.4122,40.7936,
524901,Medvedevo,48,RU,Russia,55.7522,37.6156,
525138,Mednogorsk,72,RU,Russia,53.4435,41.8106,
525162,Maykop,61,RU,Russia,48.355,41.8263,
525396,Matveyevskoye,47,RU,Russia,55.8424,38.1936,
525404,Marks,49,RU,Russia,67.9397,32.8739,
526346,Manturovo,06,RU,Russia,61.3329,44.536,
526480,Yaroslavskiy,70,RU,Russia,44.2103,43.1353,
526558,Maloyaroslavets,61,RU,Russia,48.9226,40.3967,
527012,Malgobek,84,RU,Russia,50.06,43.2379,
527057,Malakhovka,48,RU,Russia,55.6833,37.4333,
527191,Makhachkala,72,RU,Russia,52.8978,40.4907,
527361,Magnitogorsk,66,RU,Russia,59.8008,30.5478,
527529,Lyudinovo,73,RU,Russia,55.7271,53.1026,
527579,Lyublino,73,RU,Russia,55.9082,52.2905,
527717,Lyubertsy,08,RU,Russia,52.9647,55.9328,
527740,Lytkarino,83,RU,Russia,55.3343,41.6295,
527968,Lyskovo,38,RU,Russia,45.4515,39.0248,
528056,Luzhniki,45,RU,Russia,56.6339,47.8041,
528109,Lukhovitsy,55,RU,Russia,51.4128,57.595,
528293,Luga,01,RU,Russia,44.6078,40.1058,
528454,Losino-Petrovskiy,48,RU,Russia,55.7111,37.475,
529073,Lomonosov,67,RU,Russia,51.7111,46.7486,
529505,Lodeynoye Pole,37,RU,Russia,58.3289,44.7641,
530088,Lobnya,48,RU,Russia,55.8833,37.7167,
530849,Livny,25,RU,Russia,55.0146,36.4719,
531129,Liski,19,RU,Russia,43.5112,44.5882,
531820,Lipetsk,47,RU,Russia,55.6478,38.0249,
532096,Likino-Dulevo,17,RU,Russia,42.9764,47.5024,
532288,Likhobory,13,RU,Russia,53.4186,59.0472,
532459,Lianozovo,25,RU,Russia,53.8664,34.4478,
532535,Komendantsky aerodrom,48,RU,Russia,55.6792,37.7525,
532615,Lermontov,47,RU,Russia,55.6772,37.8932,
532657,Leonovo,47,RU,Russia,55.5827,37.9052,
532715,Leninskiye Gory,51,RU,Russia,56.0328,45.0422,
533067,Leninsk,48,RU,Russia,55.716,37.5538,
533543,Leninogorsk,47,RU,Russia,54.9766,39.0444,
533690,Tsaritsyno,42,RU,Russia,58.7372,29.8453,
534015,Leningradskaya,47,RU,Russia,55.8696,38.2006,
534341,Yubileyny,66,RU,Russia,59.9061,29.7725,
534560,Lefortovo,42,RU,Russia,60.726,33.5531,
534595,Lazarevskoye,47,RU,Russia,56.0097,37.4819,
534701,Lakinsk,56,RU,Russia,52.4253,37.6069,
534838,Labinsk,86,RU,Russia,50.9841,39.5154,
535121,Dugulubgey,43,RU,Russia,52.6031,39.5708,
535243,Kuznetsk,47,RU,Russia,55.7083,38.9542,
535270,Kuvandyk,48,RU,Russia,55.85,37.5667,
535330,Kuskovo,48,RU,Russia,55.8978,37.5868,
535729,Kushva,66,RU,Russia,60.0045,30.2752,
535886,Kushchevskaya,70,RU,Russia,44.1067,42.9733,
535966,Kusa,48,RU,Russia,55.85,37.65,
536098,Kursk,47,RU,Russia,55.7,37.5667,
536156,Kurovskoye,84,RU,Russia,48.7023,45.198,
536162,Kurganinsk,73,RU,Russia,54.6026,52.4609,
536164,Kurchatov,48,RU,Russia,55.6254,37.6503,
536200,Kurchaloy,38,RU,Russia,46.3214,39.3877,
536206,Kupchino,47,RU,Russia,55.9333,37.8333,
536398,Kungur,48,RU,Russia,55.7667,37.7,
536625,Kumertau,38,RU,Russia,43.9089,39.3314,
537107,Kulebaki,83,RU,Russia,56.0193,39.9485,
537281,Kukmor,38,RU,Russia,44.6342,40.7356,
537345,Kudymkar,22,RU,Russia,43.6625,43.5369,
537737,Kudepsta,57,RU,Russia,53.1167,46.6004,
538138,Kubinka,55,RU,Russia,51.4781,57.3552,
538321,Kstovo,47,RU,Russia,55.7342,37.8262,
538340,Krymsk,71,RU,Russia,58.2906,59.7592,
538416,Kropotkin,38,RU,Russia,46.5599,39.6321,
538442,Kronshtadt,13,RU,Russia,55.3383,59.4406,
538560,Krasnyy Sulin,41,RU,Russia,51.7373,36.1874,
538601,Biryulevo Zapadnoye,47,RU,Russia,55.5818,38.9199,
538836,Krasnoye Selo,38,RU,Russia,44.88,40.5986,
538908,Krasnovishersk,41,RU,Russia,51.6601,35.6521,
538913,Krasnoufimsk,12,RU,Russia,43.2018,46.0881,
539061,Krasnokamsk,66,RU,Russia,59.8528,30.3567,
539147,Krasnogvardeyskoye,90,RU,Russia,57.4368,56.9593,
539283,Krasnogorsk,08,RU,Russia,52.7667,55.7833,
539555,Krasnodar,51,RU,Russia,55.4133,42.5325,
539689,Krasnoarmeyskaya,73,RU,Russia,56.1855,50.8944,
539817,Krasnoarmeysk,90,RU,Russia,59.0131,54.6556,
539907,Presnenskiy,38,RU,Russia,43.4955,39.8929,
540030,Kozhukhovo,47,RU,Russia,55.5796,36.7039,
540103,Kozeyevo,51,RU,Russia,56.1473,44.1979,
540251,Kovylkino,38,RU,Russia,44.9293,37.9912,
540761,Kovrov,38,RU,Russia,45.4375,40.5756,
540771,Kovdor,66,RU,Russia,59.9954,29.7667,
541404,Kotovsk,61,RU,Russia,47.8922,40.0704,
541406,Kotovo,47,RU,Russia,55.5877,37.6428,
542000,Kotlas,66,RU,Russia,59.7383,30.0894,
542184,Kostroma,90,RU,Russia,60.4078,57.082,
542199,Kostomuksha,71,RU,Russia,56.6059,57.7669,
542327,Kosaya Gora,90,RU,Russia,58.0796,55.7552,
542334,Koryazhma,70,RU,Russia,45.846,41.5188,
542374,Korenovsk,47,RU,Russia,55.8204,37.3302,
542420,Konstantinovsk,38,RU,Russia,45.0448,38.976,
542461,Kondrovo,38,RU,Russia,45.3661,38.2117,
542463,Kondopoga,47,RU,Russia,56.1,38.1333,
542464,Konakovo,67,RU,Russia,51.0239,45.6969,
542634,Kommunar,47,RU,Russia,55.75,37.55,
543254,Kolpino,47,RU,Russia,55.7,37.6667,
543344,Kolomyagi,48,RU,Russia,55.8667,37.6167,
543436,Kolomna,46,RU,Russia,54.0388,43.9138,
543460,Kolomenskoye,83,RU,Russia,56.3572,41.3192,
543508,Kokhma,49,RU,Russia,67.5662,30.4758,
543605,Klintsy,72,RU,Russia,52.5867,41.5021,
543633,Klin,84,RU,Russia,50.3211,44.8012,
543704,Klimovsk,06,RU,Russia,61.2575,46.6496,
543878,Kizlyar,37,RU,Russia,57.7665,40.9269,
543899,Kizilyurt,28,RU,Russia,64.571,30.5767,
544293,Kizel,76,RU,Russia,54.119,37.5446,
544370,Kislovodsk,06,RU,Russia,61.3143,47.1691,
544896,Kirzhach,38,RU,Russia,45.469,39.4514,
545277,Kirsanov,61,RU,Russia,47.5828,41.0922,
545575,Kirovsk,25,RU,Russia,54.8064,35.9278,
545626,Kirovo-Chepetsk,28,RU,Russia,62.2057,34.2614,
545673,Kirov,77,RU,Russia,56.7,36.7667,
545788,Kirishi,42,RU,Russia,59.6206,30.39,
546105,Kireyevsk,66,RU,Russia,59.7507,30.5886,
546225,Kingisepp,66,RU,Russia,60.0243,30.2849,
546230,Kineshma,47,RU,Russia,55.0794,38.7783,
546244,Kimry,48,RU,Russia,55.6667,37.6833,
546672,Kimovsk,21,RU,Russia,56.9349,41.0915,
547475,Khot'kovo,10,RU,Russia,52.7602,32.2393,
547523,Khosta,47,RU,Russia,56.3333,36.7333,
547560,Khoroshevo-Mnevniki,47,RU,Russia,55.3635,37.5298,
547840,Kholmskiy,17,RU,Russia,43.8471,46.7145,
547849,Khimki,17,RU,Russia,43.207,46.8679,
547875,Khasavyurt,90,RU,Russia,59.0471,57.6477,
548114,Kharabali,70,RU,Russia,43.9133,42.7208,
548278,Khadyzhensk,83,RU,Russia,56.1527,38.8551,
548330,Kazan,72,RU,Russia,52.6549,42.7224,
548391,Katav-Ivanovsk,49,RU,Russia,67.6148,33.6727,
548392,Kastanayevo,42,RU,Russia,59.881,30.9951,
548395,Kaspiysk,33,RU,Russia,58.5539,50.0399,
548408,Kasimov,33,RU,Russia,58.5966,49.6601,
548410,Kashira,25,RU,Russia,54.0669,34.2995,
548442,Kashin,42,RU,Russia,59.4471,32.0205,
548506,Karachev,76,RU,Russia,53.9336,37.9279,
548602,Karachayevsk,42,RU,Russia,59.3733,28.6134,
548605,Karabulak,21,RU,Russia,57.4391,42.1289,
548652,Karabanovo,77,RU,Russia,56.8667,37.35,
548658,Kapotnya,76,RU,Russia,53.9716,38.5319,
549373,Kantyshevo,47,RU,Russia,56.257,37.9954,
549424,Kanevskaya,38,RU,Russia,43.5148,39.8683,
549479,Kandalaksha,47,RU,Russia,55.7836,37.4714,
549741,Kanash,38,RU,Russia,44.8469,38.385,
550280,Kamyzyak,47,RU,Russia,55.897,37.4297,
550478,Kamyshin,17,RU,Russia,43.2509,46.5877,
550671,Kamensk-Shakhtinskiy,07,RU,Russia,47.4196,47.2568,
550846,Kaluga,38,RU,Russia,44.4258,39.5362,
551487,Kalininsk,73,RU,Russia,55.7887,49.1221,
551794,Korolev,13,RU,Russia,54.7531,58.1956,
551835,Kaliningrad,47,RU,Russia,55.7167,37.5,
551847,Kalach-na-Donu,17,RU,Russia,42.8816,47.6392,
551891,Kalach,62,RU,Russia,54.9411,41.3953,
551964,Kachkanar,47,RU,Russia,54.8444,38.1669,
551986,Kabanovo,77,RU,Russia,57.3592,37.6081,
552920,Izmaylovo,10,RU,Russia,53.1229,34.9852,
552924,Izhevsk,27,RU,Russia,43.774,41.9142,
552951,Izberbash,19,RU,Russia,43.3051,44.8995,
552977,Ivanteyevka,83,RU,Russia,56.3167,38.7,
553034,Ivanovskoye,48,RU,Russia,55.6381,37.7931,
553092,Ivanovo,19,RU,Russia,43.2282,44.6332,
553152,Istra,38,RU,Russia,46.0849,38.9596,
553190,Ishimbay,49,RU,Russia,67.162,32.4123,
553216,Ipatovo,16,RU,Russia,55.5096,47.4913,
553248,Inza,07,RU,Russia,46.11,48.0736,
553287,Inozemtsevo,84,RU,Russia,50.0983,45.416,
553399,Igra,61,RU,Russia,48.3178,40.2595,
553915,Gusev,25,RU,Russia,54.5293,36.2754,
554199,Gukovo,67,RU,Russia,51.5,44.4758,
554233,Gudermes,47,RU,Russia,55.9142,37.8256,
554234,Gubkin,23,RU,Russia,54.7065,20.511,
554397,Gubakha,84,RU,Russia,48.691,43.5264,
554410,Gryazovets,86,RU,Russia,50.4258,41.0261,
554599,Gryazi,71,RU,Russia,58.7002,59.4839,
554679,Groznyy,47,RU,Russia,55.7481,38.9351,
554787,Gribanovskiy,47,RU,Russia,55.7868,37.8017,
554840,Grazhdanka,80,RU,Russia,56.8498,53.2045,
554894,Goryachiy Klyuch,17,RU,Russia,42.5695,47.8645,
555111,Goryachevodskiy,47,RU,Russia,55.9711,37.9208,
555129,Gorodishche,48,RU,Russia,55.7667,37.8333,
555312,Gorodets,21,RU,Russia,56.9972,40.9714,
555746,Gorelovo,47,RU,Russia,55.92,36.8687,
555980,Golitsyno,08,RU,Russia,53.4545,56.0415,
556230,Glazov,70,RU,Russia,45.7181,42.9036,
556283,Giaginskaya,81,RU,Russia,53.8567,46.3562,
